address,price,beds,baths,area,statusText,latitude,longitude,url
"3030 W Christy Dr, Phoenix, AZ 85029","$428,000",3,2,2064,House for sale,33.584816,-112.124664,https://www.zillow.com/homedetails/3030-W-Christy-Dr-Phoenix-AZ-85029/7739773_zpid/
"4317 E Ludlow Dr, Phoenix, AZ 85032","$699,900",3,2,1989,House for sale,33.611973,-111.98901,https://www.zillow.com/homedetails/4317-E-Ludlow-Dr-Phoenix-AZ-85032/8030254_zpid/
"9641 N 36th Dr, Phoenix, AZ 85051","$365,000",3,2,1574,House for sale,33.574802,-112.137,https://www.zillow.com/homedetails/9641-N-36th-Dr-Phoenix-AZ-85051/7745723_zpid/
"17244 N 29th Ave, Phoenix, AZ 85053","$350,000",3,2,1445,House for sale,33.643093,-112.12211,https://www.zillow.com/homedetails/17244-N-29th-Ave-Phoenix-AZ-85053/7942149_zpid/
"3102 E Desert Broom Way, Phoenix, AZ 85048","$1,100,000",4,2.5,3034,House for sale,33.31862,-112.019325,https://www.zillow.com/homedetails/3102-E-Desert-Broom-Way-Phoenix-AZ-85048/8150267_zpid/
"2531 W Saint Catherine Ave, Phoenix, AZ 85041","$424,999",4,2.5,2106,House for sale,33.387344,-112.11305,https://www.zillow.com/homedetails/2531-W-Saint-Catherine-Ave-Phoenix-AZ-85041/60976882_zpid/
"5850 W Cheery Lynn Rd, Phoenix, AZ 85031","$273,000",4,2,1440,House for sale,33.485428,-112.18609,https://www.zillow.com/homedetails/5850-W-Cheery-Lynn-Rd-Phoenix-AZ-85031/7497539_zpid/
"10844 N 37th Way, Phoenix, AZ 85028","$725,000",5,3,2351,House for sale,33.585854,-112.001366,https://www.zillow.com/homedetails/10844-N-37th-Way-Phoenix-AZ-85028/7819538_zpid/
"1202 E Libby St, Phoenix, AZ 85022","$565,900",4,3,2324,House for sale,33.648552,-112.05666,https://www.zillow.com/homedetails/1202-E-Libby-St-Phoenix-AZ-85022/8001819_zpid/
"1706 E John Cabot Rd, Phoenix, AZ 85022","$139,900",3,2,1430,Home for sale,33.649467,-112.04658,https://www.zillow.com/homedetails/1706-E-John-Cabot-Rd-Phoenix-AZ-85022/2068616633_zpid/
"12043 N 46th Ave, Glendale, AZ 85304","$425,000",4,2,1737,House for sale,33.595985,-112.15765,https://www.zillow.com/homedetails/12043-N-46th-Ave-Glendale-AZ-85304/7727198_zpid/
"1808 W Rose Ln, Phoenix, AZ 85015","$365,000",3,2,1352,Townhouse for sale,33.52794,-112.09789,https://www.zillow.com/homedetails/1808-W-Rose-Ln-Phoenix-AZ-85015/7774230_zpid/
"7007 S 45th Pl, Phoenix, AZ 85042","$320,000",3,2,1120,House for sale,33.383423,-111.98365,https://www.zillow.com/homedetails/7007-S-45th-Pl-Phoenix-AZ-85042/445531575_zpid/
"6823 W Garfield St, Phoenix, AZ 85043","$285,000",3,2,1080,House for sale,33.45708,-112.20679,https://www.zillow.com/homedetails/6823-W-Garfield-St-Phoenix-AZ-85043/7476158_zpid/
"3722 W Hadley St, Phoenix, AZ 85009","$300,000",5,2,1500,House for sale,33.440132,-112.1398,https://www.zillow.com/homedetails/3722-W-Hadley-St-Phoenix-AZ-85009/7506263_zpid/
"11404 S 38th Ave, Laveen, AZ 85339","$985,000",3,2.5,3190,House for sale,33.3427,-112.14191,https://www.zillow.com/homedetails/11404-S-38th-Ave-Laveen-AZ-85339/338666658_zpid/
"11802 N 25th Ave, Phoenix, AZ 85029","$264,000",4,2,1284,House for sale,33.59333,-112.11222,https://www.zillow.com/homedetails/11802-N-25th-Ave-Phoenix-AZ-85029/7749419_zpid/
"24226 N 22nd St, Phoenix, AZ 85024","$675,000",3,2,1612,House for sale,33.707275,-112.036354,https://www.zillow.com/homedetails/24226-N-22nd-St-Phoenix-AZ-85024/305204197_zpid/
"11849 N 29th Ave, Phoenix, AZ 85029","$289,900",3,2,1196,House for sale,33.594475,-112.12125,https://www.zillow.com/homedetails/11849-N-29th-Ave-Phoenix-AZ-85029/7740999_zpid/
"3615 W San Juan Ave, Phoenix, AZ 85019","$189,900",3,2,1040,House for sale,33.518658,-112.1371,https://www.zillow.com/homedetails/3615-W-San-Juan-Ave-Phoenix-AZ-85019/7719377_zpid/
"6408 W College Dr, Phoenix, AZ 85033","$365,000",4,2,1671,House for sale,33.507507,-112.19757,https://www.zillow.com/homedetails/6408-W-College-Dr-Phoenix-AZ-85033/7712222_zpid/
"3207 W Michigan Ave, Phoenix, AZ 85053","$365,000",3,2,1187,House for sale,33.6508,-112.1282,https://www.zillow.com/homedetails/3207-W-Michigan-Ave-Phoenix-AZ-85053/7941431_zpid/
"6637 W Watkins St, Phoenix, AZ 85043","$450,000",4,2.5,2059,House for sale,33.426105,-112.20319,https://www.zillow.com/homedetails/6637-W-Watkins-St-Phoenix-AZ-85043/67702975_zpid/
"13250 N 13th Ln, Phoenix, AZ 85029","$885,000",4,2.5,3215,House for sale,33.60731,-112.08765,https://www.zillow.com/homedetails/13250-N-13th-Ln-Phoenix-AZ-85029/7784587_zpid/
"6629 N Majorca Way E, Phoenix, AZ 85016","$550,000",2,2,1360,Townhouse for sale,33.533997,-112.04527,https://www.zillow.com/homedetails/6629-N-Majorca-Way-E-Phoenix-AZ-85016/7807965_zpid/
"2608 W Aster Dr, Phoenix, AZ 85029","$514,995",4,2,1724,House for sale,33.602394,-112.11517,https://www.zillow.com/homedetails/2608-W-Aster-Dr-Phoenix-AZ-85029/7748325_zpid/
"5236 S 19th Ave, Phoenix, AZ 85041","$449,000",4,3,1866,House for sale,33.39871,-112.098816,https://www.zillow.com/homedetails/5236-S-19th-Ave-Phoenix-AZ-85041/7501589_zpid/
"7815 S 22nd Ln, Phoenix, AZ 85041","$375,000",3,2,1917,House for sale,33.37505,-112.10811,https://www.zillow.com/homedetails/7815-S-22nd-Ln-Phoenix-AZ-85041/60984209_zpid/
"2609 N 65th Dr, Phoenix, AZ 85035","$389,000",5,3,1745,House for sale,33.477104,-112.19999,https://www.zillow.com/homedetails/2609-N-65th-Dr-Phoenix-AZ-85035/7490220_zpid/
"20038 N 38th Ln, Glendale, AZ 85308","$545,000",4,2,1813,House for sale,33.66898,-112.1427,https://www.zillow.com/homedetails/20038-N-38th-Ln-Glendale-AZ-85308/60048774_zpid/
"12434 S Ki Cir, Phoenix, AZ 85044","$550,000",4,2,1748,House for sale,33.332676,-111.97666,https://www.zillow.com/homedetails/12434-S-Ki-Cir-Phoenix-AZ-85044/8151359_zpid/
"1535 W Berridge Ln, Phoenix, AZ 85015","$599,500",4,2,1649,House for sale,33.525585,-112.09271,https://www.zillow.com/homedetails/1535-W-Berridge-Ln-Phoenix-AZ-85015/7774453_zpid/
"21813 N 40th Way, Phoenix, AZ 85050","$649,000",6,3,2177,House for sale,33.684326,-111.98663,https://www.zillow.com/homedetails/21813-N-40th-Way-Phoenix-AZ-85050/50182068_zpid/
"411 W Colter St APT A, Phoenix, AZ 85013","$999,999",2,1,3072,Apartment for sale,33.512695,-112.07963,https://www.zillow.com/homedetails/411-W-Colter-St-APT-A-Phoenix-AZ-85013/2084066890_zpid/
"2339 W Sunland Ave, Phoenix, AZ 85041","$485,000",4,2,2578,House for sale,33.395596,-112.1094,https://www.zillow.com/homedetails/2339-W-Sunland-Ave-Phoenix-AZ-85041/338668458_zpid/
"6337 W Valencia Dr, Laveen, AZ 85339","$369,900",4,2.5,2328,House for sale,33.37608,-112.19638,https://www.zillow.com/homedetails/6337-W-Valencia-Dr-Laveen-AZ-85339/81951373_zpid/
"25710 N 20th Ln, Phoenix, AZ 85085","$720,000",3,2.5,2470,House for sale,33.71895,-112.105995,https://www.zillow.com/homedetails/25710-N-20th-Ln-Phoenix-AZ-85085/284856271_zpid/
"2650 W Union Hills Dr LOT 236, Phoenix, AZ 85027","$28,500",2,2,1400,Home for sale,33.65654,-112.11933,https://www.zillow.com/homedetails/2650-W-Union-Hills-Dr-LOT-236-Phoenix-AZ-85027/345335670_zpid/
"4010 W Fremont Rd, Phoenix, AZ 85041","$364,900",4,2.5,2093,House for sale,33.38155,-112.14523,https://www.zillow.com/homedetails/4010-W-Fremont-Rd-Phoenix-AZ-85041/55258578_zpid/
"2815 N 52nd St UNIT 3, Phoenix, AZ 85008","$255,000",2,1.5,936,Townhouse for sale,33.47919,-111.96915,https://www.zillow.com/homedetails/2815-N-52nd-St-UNIT-3-Phoenix-AZ-85008/7562705_zpid/
"919 E Villa Maria Dr, Phoenix, AZ 85022","$360,000",3,2,1088,House for sale,33.651752,-112.06038,https://www.zillow.com/homedetails/919-E-Villa-Maria-Dr-Phoenix-AZ-85022/8002459_zpid/
"2002 N 25th St, Phoenix, AZ 85008",$150K,2,1,1090,Auction,33.469486,-112.0282,https://www.zillow.comhttps://www.zillow.com/homedetails/2002-N-25th-St-Phoenix-AZ-85008/7543793_zpid/
"5051 E Lafayette Blvd, Phoenix, AZ 85018","$4,895,000",7,8,6916,House for sale,33.4965,-111.97185,https://www.zillow.comhttps://www.zillow.com/homedetails/5051-E-Lafayette-Blvd-Phoenix-AZ-85018/7838863_zpid/
"6836 N 36th St, Phoenix, AZ 85018","$8,950,000",3,3,3095,House for sale,33.538727,-112.00349,https://www.zillow.comhttps://www.zillow.com/homedetails/6836-N-36th-St-Phoenix-AZ-85018/7809607_zpid/
"3251 W Mercer Ln, Phoenix, AZ 85029","$395,000",3,2,1590,House for sale,33.585007,-112.129745,https://www.zillow.comhttps://www.zillow.com/homedetails/3251-W-Mercer-Ln-Phoenix-AZ-85029/7740409_zpid/
"7209 S 48th Ln, Laveen, AZ 85339","$325,000",3,3,1435,House for sale,33.381046,-112.162506,https://www.zillow.comhttps://www.zillow.com/homedetails/7209-S-48th-Ln-Laveen-AZ-85339/95082333_zpid/
"3021 E Windrose Dr, Phoenix, AZ 85032","$459,000",3,1.75,1224,House for sale,33.602245,-112.016525,https://www.zillow.comhttps://www.zillow.com/homedetails/3021-E-Windrose-Dr-Phoenix-AZ-85032/7814984_zpid/
"5740 N 42nd Ln, Phoenix, AZ 85019","$300,000",3,2,1700,For sale by owner,33.52155,-112.15072,https://www.zillow.comhttps://www.zillow.com/homedetails/5740-N-42nd-Ln-Phoenix-AZ-85019/7718980_zpid/
"3523 W Buckhorn Trl, Phoenix, AZ 85083","$749,000",4,3,2692,House for sale,33.731964,-112.1359,https://www.zillow.comhttps://www.zillow.com/homedetails/3523-W-Buckhorn-Trl-Phoenix-AZ-85083/60981319_zpid/
"1621 W Mulberry Dr, Phoenix, AZ 85015","$465,000",3,2,1539,House for sale,33.486603,-112.09458,https://www.zillow.comhttps://www.zillow.com/homedetails/1621-W-Mulberry-Dr-Phoenix-AZ-85015/7518027_zpid/
"1814 N 89th Ave, Phoenix, AZ 85037","$364,900",3,2,1487,House for sale,33.467426,-112.25083,https://www.zillow.comhttps://www.zillow.com/homedetails/1814-N-89th-Ave-Phoenix-AZ-85037/7474385_zpid/
"4320 N 35th St, Phoenix, AZ 85018","$975,000",3,2,1730,House for sale,33.499584,-112.00706,https://www.zillow.comhttps://www.zillow.com/homedetails/4320-N-35th-St-Phoenix-AZ-85018/7834178_zpid/
"18644 N 5th Ave, Phoenix, AZ 85027","$335,000",3,2.5,1186,House for sale,33.656242,-112.080536,https://www.zillow.comhttps://www.zillow.com/homedetails/18644-N-5th-Ave-Phoenix-AZ-85027/7972576_zpid/
"3738 W Danbury Dr, Glendale, AZ 85308","$355,000",3,2,1784,House for sale,33.641563,-112.14046,https://www.zillow.comhttps://www.zillow.com/homedetails/3738-W-Danbury-Dr-Glendale-AZ-85308/7947343_zpid/
"10939 W Meadowbrook Ave, Phoenix, AZ 85037","$395,000",6,3,2221,House for sale,33.50204,-112.29562,https://www.zillow.comhttps://www.zillow.com/homedetails/10939-W-Meadowbrook-Ave-Phoenix-AZ-85037/81989293_zpid/
"22635 N 54th Pl, Phoenix, AZ 85054","$1,850,000",4,3.5,3873,House for sale,33.692966,-111.957184,https://www.zillow.comhttps://www.zillow.com/homedetails/22635-N-54th-Pl-Phoenix-AZ-85054/7989508_zpid/
"3823 W Berridge Ln, Phoenix, AZ 85019","$339,900",4,2,1863,House for sale,33.52527,-112.14173,https://www.zillow.comhttps://www.zillow.com/homedetails/3823-W-Berridge-Ln-Phoenix-AZ-85019/7759001_zpid/
"12813 S 38th St, Phoenix, AZ 85044","$620,000",4,2.5,2264,House for sale,33.3302,-112.000465,https://www.zillow.comhttps://www.zillow.com/homedetails/12813-S-38th-St-Phoenix-AZ-85044/8140617_zpid/
"3639 W Beryl Ave, Phoenix, AZ 85051","$375,000",4,2,2172,House for sale,33.57969,-112.137566,https://www.zillow.comhttps://www.zillow.com/homedetails/3639-W-Beryl-Ave-Phoenix-AZ-85051/7745257_zpid/
"4750 N Central Ave #N7, Phoenix, AZ 85012","$147,000",1,1,702,Condo for sale,33.50723,-112.07476,https://www.zillow.comhttps://www.zillow.com/homedetails/4750-N-Central-Ave-N7-Phoenix-AZ-85012/2080443547_zpid/
"19615 N 18th Dr, Phoenix, AZ 85027","$530,000",5,3,2224,House for sale,33.664433,-112.09852,https://www.zillow.comhttps://www.zillow.com/homedetails/19615-N-18th-Dr-Phoenix-AZ-85027/7970971_zpid/
"2745 E Wood St, Phoenix, AZ 85040","$315,000",3,2,1222,House for sale,33.408527,-112.021675,https://www.zillow.comhttps://www.zillow.com/homedetails/2745-E-Wood-St-Phoenix-AZ-85040/7545949_zpid/
"2236 E Sierra St, Phoenix, AZ 85028","$799,000",3,2,2136,House for sale,33.59215,-112.03292,https://www.zillow.comhttps://www.zillow.com/homedetails/2236-E-Sierra-St-Phoenix-AZ-85028/7816349_zpid/
"6321 W Gross Ave, Phoenix, AZ 85043","$464,900",4,2.5,2119,House for sale,33.429153,-112.19656,https://www.zillow.comhttps://www.zillow.com/homedetails/6321-W-Gross-Ave-Phoenix-AZ-85043/53206296_zpid/
"20809 N 1st Ave, Phoenix, AZ 85027","$479,000",3,2.5,1853,House for sale,33.675453,-112.074486,https://www.zillow.comhttps://www.zillow.com/homedetails/20809-N-1st-Ave-Phoenix-AZ-85027/7967631_zpid/
"14001 N 34th Dr, Phoenix, AZ 85053","$500,000",5,3.5,2388,House for sale,33.612926,-112.13153,https://www.zillow.comhttps://www.zillow.com/homedetails/14001-N-34th-Dr-Phoenix-AZ-85053/7943398_zpid/
"2844 W Christy Dr, Phoenix, AZ 85029","$299,999",3,2,1563,Townhouse for sale,33.584602,-112.12251,https://www.zillow.comhttps://www.zillow.com/homedetails/2844-W-Christy-Dr-Phoenix-AZ-85029/7750032_zpid/
"4131 E Cascalote Dr, Cave Creek, AZ 85331","$585,000",3,2,1811,House for sale,33.75972,-111.991585,https://www.zillow.comhttps://www.zillow.com/homedetails/4131-E-Cascalote-Dr-Cave-Creek-AZ-85331/7978506_zpid/
"3611 E Ahwatukee Dr, Phoenix, AZ 85044","$1,125,000",5,3.5,3769,House for sale,33.333694,-112.00543,https://www.zillow.comhttps://www.zillow.com/homedetails/3611-E-Ahwatukee-Dr-Phoenix-AZ-85044/8140420_zpid/
"2011 W Burgess Ln, Phoenix, AZ 85041","$375,000",3,2,1470,House for sale,33.389206,-112.101944,https://www.zillow.comhttps://www.zillow.com/homedetails/2011-W-Burgess-Ln-Phoenix-AZ-85041/67781735_zpid/
"6118 S 46th Ave, Laveen, AZ 85339","$535,000",5,3,3336,House for sale,33.391075,-112.15772,https://www.zillow.comhttps://www.zillow.com/homedetails/6118-S-46th-Ave-Laveen-AZ-85339/67773461_zpid/
"4627 E McNeil St, Phoenix, AZ 85044","$549,500",4,3,2030,House for sale,33.358498,-111.97776,https://www.zillow.comhttps://www.zillow.com/homedetails/4627-E-McNeil-St-Phoenix-AZ-85044/8142330_zpid/
"1807 E Campbell Ave, Phoenix, AZ 85016","$1,275,000",4,3.5,2770,House for sale,33.50174,-112.042366,https://www.zillow.comhttps://www.zillow.com/homedetails/1807-E-Campbell-Ave-Phoenix-AZ-85016/7804455_zpid/
"2542 E Jones Ave, Phoenix, AZ 85040","$339,900",4,2,1178,House for sale,33.410778,-112.02576,https://www.zillow.comhttps://www.zillow.com/homedetails/2542-E-Jones-Ave-Phoenix-AZ-85040/7546107_zpid/
"4708 N 106th Dr, Phoenix, AZ 85037","$339,900",3,2,1363,For sale by owner,33.504826,-112.28958,https://www.zillow.comhttps://www.zillow.com/homedetails/4708-N-106th-Dr-Phoenix-AZ-85037/7466189_zpid/
"4407 W Avenida Del Sol, Glendale, AZ 85310","$495,000",4,2,1696,House for sale,33.70099,-112.154526,https://www.zillow.comhttps://www.zillow.com/homedetails/4407-W-Avenida-Del-Sol-Glendale-AZ-85310/7930590_zpid/
"2233 E Behrend Dr #203, Phoenix, AZ 85024","$180,000",4,2,1680,Home for sale,33.662655,-112.03744,https://www.zillow.comhttps://www.zillow.com/homedetails/2233-E-Behrend-Dr-203-Phoenix-AZ-85024/452755691_zpid/
"16402 N 31st St UNIT 115, Phoenix, AZ 85032","$197,500",2,2,934,Condo for sale,33.635662,-112.01748,https://www.zillow.comhttps://www.zillow.com/homedetails/16402-N-31st-St-UNIT-115-Phoenix-AZ-85032/8005947_zpid/
"1017 W Lydia Ln, Phoenix, AZ 85041","$356,500",4,2.5,1643,House for sale,33.38709,-112.085526,https://www.zillow.comhttps://www.zillow.com/homedetails/1017-W-Lydia-Ln-Phoenix-AZ-85041/60976382_zpid/
"12215 S Potomac St, Phoenix, AZ 85044","$280,000",2,2,1212,House for sale,33.33615,-111.980515,https://www.zillow.comhttps://www.zillow.com/homedetails/12215-S-Potomac-St-Phoenix-AZ-85044/8257570_zpid/
"3317 N 10th Ave, Phoenix, AZ 85013","$349,900",3,2,1092,House for sale,33.486656,-112.08585,https://www.zillow.comhttps://www.zillow.com/homedetails/3317-N-10th-Ave-Phoenix-AZ-85013/7518206_zpid/
"3226 W Grovers Ave, Phoenix, AZ 85053","$255,000",2,1,991,House for sale,33.64762,-112.12882,https://www.zillow.comhttps://www.zillow.com/homedetails/3226-W-Grovers-Ave-Phoenix-AZ-85053/7941587_zpid/
"13202 N 40th Pl, Phoenix, AZ 85032","$430,000",3,2,1784,House for sale,33.606674,-111.99558,https://www.zillow.comhttps://www.zillow.com/homedetails/13202-N-40th-Pl-Phoenix-AZ-85032/7823287_zpid/
"6140 W Berkeley Rd, Phoenix, AZ 85035","$425,000",4,3,1568,House for sale,33.468456,-112.19186,https://www.zillow.comhttps://www.zillow.com/homedetails/6140-W-Berkeley-Rd-Phoenix-AZ-85035/7490928_zpid/
"1802 E Campo Bello Dr LOT 36, Phoenix, AZ 85022","$120,000",3,2,1512,Home for sale,33.645996,-112.04287,https://www.zillow.comhttps://www.zillow.com/homedetails/1802-E-Campo-Bello-Dr-LOT-36-Phoenix-AZ-85022/2097651520_zpid/
"515 W Romley Ave, Phoenix, AZ 85041","$300,000",3,2,1972,House for sale,33.401394,-112.07934,https://www.zillow.comhttps://www.zillow.com/homedetails/515-W-Romley-Ave-Phoenix-AZ-85041/7524175_zpid/
"12016 N 45th Ave, Glendale, AZ 85304","$370,000",4,2.25,2211,House for sale,33.59508,-112.15553,https://www.zillow.comhttps://www.zillow.com/homedetails/12016-N-45th-Ave-Glendale-AZ-85304/7727222_zpid/
"646 N 68th Ln #141, Phoenix, AZ 85043","$59,000",2,2,980,For sale by owner,33.456448,-112.207695,https://www.zillow.comhttps://www.zillow.com/homedetails/646-N-68th-Ln-141-Phoenix-AZ-85043/440953883_zpid/
"9428 N 9th Ave, Phoenix, AZ 85021","$309,855",6,3,1920,New construction,33.572247,-112.08504,https://www.zillow.comhttps://www.zillow.com/homedetails/9428-N-9th-Ave-Phoenix-AZ-85021/7782040_zpid/
"18629 N 4th Dr, Phoenix, AZ 85027","$369,900",3,3,1339,House for sale,33.65592,-112.07967,https://www.zillow.comhttps://www.zillow.com/homedetails/18629-N-4th-Dr-Phoenix-AZ-85027/7972616_zpid/
"11627 S Iroquois Dr, Phoenix, AZ 85044","$335,000",3,2,1170,House for sale,33.341457,-111.98396,https://www.zillow.comhttps://www.zillow.com/homedetails/11627-S-Iroquois-Dr-Phoenix-AZ-85044/8149533_zpid/
"2909 W Bowker St, Phoenix, AZ 85041","$469,000",4,3,2315,House for sale,33.39631,-112.121216,https://www.zillow.comhttps://www.zillow.com/homedetails/2909-W-Bowker-St-Phoenix-AZ-85041/71605270_zpid/
"3118 E Gary Way, Phoenix, AZ 85042","$1,100,000",4,4,3091,House for sale,33.37403,-112.01565,https://www.zillow.comhttps://www.zillow.com/homedetails/3118-E-Gary-Way-Phoenix-AZ-85042/284863143_zpid/
"22432 N 52nd Pl, Phoenix, AZ 85054","$850,000",4,2.5,2113,House for sale,33.690456,-111.96463,https://www.zillow.comhttps://www.zillow.com/homedetails/22432-N-52nd-Pl-Phoenix-AZ-85054/7989261_zpid/
"3408 N 69th Dr, Phoenix, AZ 85033","$375,000",3,2,1264,House for sale,33.487873,-112.2093,https://www.zillow.comhttps://www.zillow.com/homedetails/3408-N-69th-Dr-Phoenix-AZ-85033/7485970_zpid/
"4537 E Shomi St, Phoenix, AZ 85044","$290,000",2,2,1426,House for sale,33.327065,-111.985306,https://www.zillow.comhttps://www.zillow.com/homedetails/4537-E-Shomi-St-Phoenix-AZ-85044/8150902_zpid/
"13438 N 18th Ln, Phoenix, AZ 85029","$585,000",5,4,2879,For sale by owner,33.609116,-112.09935,https://www.zillow.comhttps://www.zillow.com/homedetails/13438-N-18th-Ln-Phoenix-AZ-85029/7784589_zpid/
"1720 W Pollack St, Phoenix, AZ 85041","$340,000",4,2.5,2079,House for sale,33.380123,-112.09572,https://www.zillow.comhttps://www.zillow.com/homedetails/1720-W-Pollack-St-Phoenix-AZ-85041/121856032_zpid/
"3811 E Evans Dr, Phoenix, AZ 85032","$624,888",4,2,1907,House for sale,33.6182,-111.998276,https://www.zillow.comhttps://www.zillow.com/homedetails/3811-E-Evans-Dr-Phoenix-AZ-85032/8012718_zpid/
"16425 S 34th St, Phoenix, AZ 85048","$835,000",4,3.5,3157,House for sale,33.29703,-112.01036,https://www.zillow.comhttps://www.zillow.com/homedetails/16425-S-34th-St-Phoenix-AZ-85048/50199042_zpid/
"14830 N 28th Pl, Phoenix, AZ 85032","$700,000",4,2,2204,House for sale,33.621555,-112.020485,https://www.zillow.comhttps://www.zillow.com/homedetails/14830-N-28th-Pl-Phoenix-AZ-85032/8011532_zpid/
"3011 W Salter Dr, Phoenix, AZ 85027","$409,900",3,2,1324,House for sale,33.681976,-112.1234,https://www.zillow.comhttps://www.zillow.com/homedetails/3011-W-Salter-Dr-Phoenix-AZ-85027/7940043_zpid/
"12220 N 22nd Pl, Phoenix, AZ 85022","$399,000",3,2,1406,House for sale,33.597607,-112.03367,https://www.zillow.comhttps://www.zillow.com/homedetails/12220-N-22nd-Pl-Phoenix-AZ-85022/7819956_zpid/
"3823 E Poinsettia Dr, Phoenix, AZ 85028","$624,999",4,2,2104,House for sale,33.594856,-111.99904,https://www.zillow.comhttps://www.zillow.com/homedetails/3823-E-Poinsettia-Dr-Phoenix-AZ-85028/7818161_zpid/
"23428 N 64th Ave, Glendale, AZ 85310","$5,475,000",7,11,9633,House for sale,33.698895,-112.198135,https://www.zillow.comhttps://www.zillow.com/homedetails/23428-N-64th-Ave-Glendale-AZ-85310/449383713_zpid/
"5023 N 39th Dr, Phoenix, AZ 85019","$325,000",3,2,1578,House for sale,33.510616,-112.1435,https://www.zillow.comhttps://www.zillow.com/homedetails/5023-N-39th-Dr-Phoenix-AZ-85019/7721328_zpid/
"15 E Briles Rd, Phoenix, AZ 85085","$900,000",5,4,3503,House for sale,33.72343,-112.0739,https://www.zillow.comhttps://www.zillow.com/homedetails/15-E-Briles-Rd-Phoenix-AZ-85085/7973003_zpid/
"2127 W Marco Polo Rd, Phoenix, AZ 85027","$365,000",3,2,1110,House for sale,33.666203,-112.10537,https://www.zillow.comhttps://www.zillow.com/homedetails/2127-W-Marco-Polo-Rd-Phoenix-AZ-85027/7970521_zpid/
"4428 E Yawepe St, Phoenix, AZ 85044","$598,500",4,2,2079,House for sale,33.34278,-111.98693,https://www.zillow.comhttps://www.zillow.com/homedetails/4428-E-Yawepe-St-Phoenix-AZ-85044/8258527_zpid/
"5812 W Spur Dr, Phoenix, AZ 85083","$1,200,000",5,4.5,4796,House for sale,33.725925,-112.185,https://www.zillow.comhttps://www.zillow.com/homedetails/5812-W-Spur-Dr-Phoenix-AZ-85083/81976710_zpid/
"2117 E Saltsage Dr, Phoenix, AZ 85048","$470,000",3,2.5,1755,House for sale,33.294357,-112.03735,https://www.zillow.comhttps://www.zillow.com/homedetails/2117-E-Saltsage-Dr-Phoenix-AZ-85048/8257200_zpid/
"2608 W Columbine Dr, Phoenix, AZ 85029","$400,000",3,2,1372,House for sale,33.599537,-112.11475,https://www.zillow.comhttps://www.zillow.com/homedetails/2608-W-Columbine-Dr-Phoenix-AZ-85029/7748406_zpid/
"2024 W Darrel Rd, Phoenix, AZ 85041","$440,000",4,2,2519,House for sale,33.384373,-112.102745,https://www.zillow.comhttps://www.zillow.com/homedetails/2024-W-Darrel-Rd-Phoenix-AZ-85041/67781883_zpid/
"7035 N 11th Pl, Phoenix, AZ 85020","$475,000",3,2,1283,House for sale,33.53954,-112.057816,https://www.zillow.comhttps://www.zillow.com/homedetails/7035-N-11th-Pl-Phoenix-AZ-85020/7792060_zpid/
"6352 W Hackamore Dr, Phoenix, AZ 85083","$550,000",3,2,2152,House for sale,33.714115,-112.19743,https://www.zillow.comhttps://www.zillow.com/homedetails/6352-W-Hackamore-Dr-Phoenix-AZ-85083/7925549_zpid/
"8727 N 35th Dr, Phoenix, AZ 85051","$300,000",4,2,1723,House for sale,33.564884,-112.134964,https://www.zillow.comhttps://www.zillow.com/homedetails/8727-N-35th-Dr-Phoenix-AZ-85051/7754008_zpid/
"3217 E Friess Dr, Phoenix, AZ 85032","$399,950",3,2,1936,House for sale,33.613735,-112.012375,https://www.zillow.comhttps://www.zillow.com/homedetails/3217-E-Friess-Dr-Phoenix-AZ-85032/8011819_zpid/
"4345 E Annette Dr, Phoenix, AZ 85032","$670,000",4,2,2065,House for sale,33.653675,-111.98754,https://www.zillow.comhttps://www.zillow.com/homedetails/4345-E-Annette-Dr-Phoenix-AZ-85032/8017894_zpid/
"7438 S 75th Dr, Laveen, AZ 85339","$274,990",2,2.5,1402,New construction,33.378494,-112.22041,https://www.zillow.comhttps://www.zillow.com/homedetails/7438-S-75th-Dr-Laveen-AZ-85339/443455765_zpid/
"19602 N 32nd St LOT 92, Phoenix, AZ 85050","$25,000",2,2,792,Home for sale,33.664574,-112.016594,https://www.zillow.comhttps://www.zillow.com/homedetails/19602-N-32nd-St-LOT-92-Phoenix-AZ-85050/2127466151_zpid/
"735 W Kelton Ln, Phoenix, AZ 85023","$749,000",4,2.5,3019,House for sale,33.637302,-112.08416,https://www.zillow.comhttps://www.zillow.com/homedetails/735-W-Kelton-Ln-Phoenix-AZ-85023/7960784_zpid/
"810 E Potter Dr, Phoenix, AZ 85024","$410,000",3,2,1000,House for sale,33.67487,-112.062584,https://www.zillow.comhttps://www.zillow.com/homedetails/810-E-Potter-Dr-Phoenix-AZ-85024/7991052_zpid/
"10401 N Cave Creek Rd LOT 197, Phoenix, AZ 85020","$35,000",2,2,786,For sale by owner,33.58198,-112.04824,https://www.zillow.comhttps://www.zillow.com/homedetails/10401-N-Cave-Creek-Rd-LOT-197-Phoenix-AZ-85020/452773645_zpid/
"4423 W Lodge Dr, Laveen, AZ 85339","$795,000",4,3,3695,House for sale,33.3533,-112.15544,https://www.zillow.comhttps://www.zillow.com/homedetails/4423-W-Lodge-Dr-Laveen-AZ-85339/71602431_zpid/
"4408 W Summerside Rd, Laveen, AZ 85339","$550,000",5,3,3090,House for sale,33.35678,-112.15487,https://www.zillow.comhttps://www.zillow.com/homedetails/4408-W-Summerside-Rd-Laveen-AZ-85339/67771637_zpid/
"349 E Thomas Rd UNIT E401, Phoenix, AZ 85012","$310,000",3,2,1620,Condo for sale,33.478703,-112.06801,https://www.zillow.comhttps://www.zillow.com/homedetails/349-E-Thomas-Rd-UNIT-E401-Phoenix-AZ-85012/7536408_zpid/
"1006 S 3rd Ave, Phoenix, AZ 85003","$135,000",3,1,1554,House for sale,33.437843,-112.07757,https://www.zillow.comhttps://www.zillow.com/homedetails/1006-S-3rd-Ave-Phoenix-AZ-85003/7522887_zpid/
"8717 W Wilshire Dr, Phoenix, AZ 85037","$349,000",4,2,1822,House for sale,33.475548,-112.24745,https://www.zillow.comhttps://www.zillow.com/homedetails/8717-W-Wilshire-Dr-Phoenix-AZ-85037/7473942_zpid/
"7030 N 12th St, Phoenix, AZ 85020","$475,000",4,2,1688,House for sale,33.539345,-112.05659,https://www.zillow.comhttps://www.zillow.com/homedetails/7030-N-12th-St-Phoenix-AZ-85020/7792035_zpid/
"1425 E Desert Cove Ave UNIT 49, Phoenix, AZ 85020","$225,000",2,2,1592,Townhouse for sale,33.585335,-112.05147,https://www.zillow.comhttps://www.zillow.com/homedetails/1425-E-Desert-Cove-Ave-UNIT-49-Phoenix-AZ-85020/2061833092_zpid/
"8043 W Albeniz Pl, Phoenix, AZ 85043","$340,000",3,2.5,1395,New construction,33.41322,-112.23377,https://www.zillow.comhttps://www.zillow.com/homedetails/8043-W-Albeniz-Pl-Phoenix-AZ-85043/95093044_zpid/
"4414 E Hubbell St UNIT 66, Phoenix, AZ 85008","$319,000",2,2,1012,Condo for sale,33.47042,-111.986275,https://www.zillow.comhttps://www.zillow.com/homedetails/4414-E-Hubbell-St-UNIT-66-Phoenix-AZ-85008/7560938_zpid/
"1602 N 73rd Ave, Phoenix, AZ 85035","$415,000",4,2,2047,House for sale,33.465996,-112.21659,https://www.zillow.comhttps://www.zillow.com/homedetails/1602-N-73rd-Ave-Phoenix-AZ-85035/7475117_zpid/
"4616 N Royal Palm Cir, Phoenix, AZ 85018","$3,999,000",4,4,4379,House for sale,33.504288,-111.97171,https://www.zillow.comhttps://www.zillow.com/homedetails/4616-N-Royal-Palm-Cir-Phoenix-AZ-85018/7838217_zpid/
"2731 E Windsor Ave, Phoenix, AZ 85008","$460,000",3,2,1329,House for sale,33.478355,-112.02255,https://www.zillow.comhttps://www.zillow.com/homedetails/2731-E-Windsor-Ave-Phoenix-AZ-85008/55258860_zpid/
"3747 W Atlanta Ave, Phoenix, AZ 85041","$285,000",3,1.5,1053,House for sale,33.399876,-112.13945,https://www.zillow.comhttps://www.zillow.com/homedetails/3747-W-Atlanta-Ave-Phoenix-AZ-85041/7503412_zpid/
"712 W Vernon Ave, Phoenix, AZ 85007","$1,265,000",4,2,2184,House for sale,33.474308,-112.083496,https://www.zillow.comhttps://www.zillow.com/homedetails/712-W-Vernon-Ave-Phoenix-AZ-85007/7520827_zpid/
"4714 E Broadway Rd, Phoenix, AZ 85040","$199,900",2,1,924,Townhouse for sale,33.407547,-111.97957,https://www.zillow.comhttps://www.zillow.com/homedetails/4714-E-Broadway-Rd-Phoenix-AZ-85040/7556919_zpid/
"4215 W Hackamore Dr, Phoenix, AZ 85083","$699,000",5,3,2708,House for sale,33.714203,-112.15147,https://www.zillow.comhttps://www.zillow.com/homedetails/4215-W-Hackamore-Dr-Phoenix-AZ-85083/50184469_zpid/
"4226 W Evans Dr, Phoenix, AZ 85053","$409,900",3,2,1466,Foreclosure,33.617393,-112.15041,https://www.zillow.comhttps://www.zillow.com/homedetails/4226-W-Evans-Dr-Phoenix-AZ-85053/7945284_zpid/
"2342 N 40th Ave, Phoenix, AZ 85009","$359,999",3,2,1080,House for sale,33.474674,-112.14594,https://www.zillow.comhttps://www.zillow.com/homedetails/2342-N-40th-Ave-Phoenix-AZ-85009/7512504_zpid/
"4436 E Shomi St, Phoenix, AZ 85044","$330,000",2,2,1426,House for sale,33.32778,-111.987434,https://www.zillow.comhttps://www.zillow.com/homedetails/4436-E-Shomi-St-Phoenix-AZ-85044/8150953_zpid/
"2224 N 24th Pl, Phoenix, AZ 85008","$398,500",3,1,1039,House for sale,33.472683,-112.02934,https://www.zillow.comhttps://www.zillow.com/homedetails/2224-N-24th-Pl-Phoenix-AZ-85008/7543703_zpid/
"216 E Harmont Dr, Phoenix, AZ 85020","$950,000",4,3,2294,House for sale,33.55496,-112.069725,https://www.zillow.comhttps://www.zillow.com/homedetails/216-E-Harmont-Dr-Phoenix-AZ-85020/7794408_zpid/
"4750 N Central Ave #A3, Phoenix, AZ 85012","$159,000",2,1,980,Condo for sale,33.50723,-112.07441,https://www.zillow.comhttps://www.zillow.com/homedetails/4750-N-Central-Ave-A3-Phoenix-AZ-85012/2075692048_zpid/
"4216 N 20th St, Phoenix, AZ 85016","$575,000",4,2,2103,House for sale,33.49789,-112.03921,https://www.zillow.comhttps://www.zillow.com/homedetails/4216-N-20th-St-Phoenix-AZ-85016/7804446_zpid/
"6623 S 23rd Dr, Phoenix, AZ 85041","$450,000",4,2,1843,House for sale,33.385513,-112.10842,https://www.zillow.comhttps://www.zillow.com/homedetails/6623-S-23rd-Dr-Phoenix-AZ-85041/60976912_zpid/
"2514 E Pleasant Ln, Phoenix, AZ 85042","$675,000",4,3,2482,House for sale,33.39128,-112.02732,https://www.zillow.comhttps://www.zillow.com/homedetails/2514-E-Pleasant-Ln-Phoenix-AZ-85042/284857541_zpid/
"909 W Tamarisk Ave, Phoenix, AZ 85041","$345,000",4,3,2004,New construction,33.40353,-112.08423,https://www.zillow.comhttps://www.zillow.com/homedetails/909-W-Tamarisk-Ave-Phoenix-AZ-85041/2053524653_zpid/
"530 W Almeria Rd, Phoenix, AZ 85003","$799,900",3,3.5,1787,House for sale,33.467045,-112.0819,https://www.zillow.comhttps://www.zillow.com/homedetails/530-W-Almeria-Rd-Phoenix-AZ-85003/7537454_zpid/
"4033 W Sharon Ave, Phoenix, AZ 85029","$525,000",4,2,1859,House for sale,33.608753,-112.14576,https://www.zillow.comhttps://www.zillow.com/homedetails/4033-W-Sharon-Ave-Phoenix-AZ-85029/7741869_zpid/
"807 E Fairmount Ave, Phoenix, AZ 85014","$535,000",5,3,1550,Multi-family home for sale,33.492596,-112.06347,https://www.zillow.comhttps://www.zillow.com/homedetails/807-E-Fairmount-Ave-Phoenix-AZ-85014/81972272_zpid/
"2989 N 44th St UNIT 3016, Phoenix, AZ 85018","$390,000",2,2,1081,Condo for sale,33.48224,-111.984085,https://www.zillow.comhttps://www.zillow.com/homedetails/2989-N-44th-St-UNIT-3016-Phoenix-AZ-85018/60977865_zpid/
"1835 E Burgess Ln, Phoenix, AZ 85042","$429,900",4,2,2085,House for sale,33.389565,-112.041245,https://www.zillow.comhttps://www.zillow.com/homedetails/1835-E-Burgess-Ln-Phoenix-AZ-85042/7548528_zpid/
"3651 N 49th Pl, Phoenix, AZ 85018","$2,299,999",4,3.5,3103,House for sale,33.490646,-111.97402,https://www.zillow.comhttps://www.zillow.com/homedetails/3651-N-49th-Pl-Phoenix-AZ-85018/7565968_zpid/
"16604 N 1st Dr #121, Phoenix, AZ 85023","$15,000",2,2,980,Home for sale,33.63832,-112.076256,https://www.zillow.comhttps://www.zillow.com/homedetails/16604-N-1st-Dr-121-Phoenix-AZ-85023/450096130_zpid/
"22903 N 39th Ter, Phoenix, AZ 85050","$1,165,000",4,3,3677,House for sale,33.69435,-111.98504,https://www.zillow.comhttps://www.zillow.com/homedetails/22903-N-39th-Ter-Phoenix-AZ-85050/62731306_zpid/
"2422 E Rockledge Rd, Phoenix, AZ 85048","$675,000",3,2,2109,House for sale,33.314095,-112.02992,https://www.zillow.comhttps://www.zillow.com/homedetails/2422-E-Rockledge-Rd-Phoenix-AZ-85048/8159616_zpid/
"4136 E Eugie Ave, Phoenix, AZ 85032","$565,000",3,2,1460,House for sale,33.610306,-111.9918,https://www.zillow.comhttps://www.zillow.com/homedetails/4136-E-Eugie-Ave-Phoenix-AZ-85032/7823026_zpid/
"7013 W Branham Ln, Laveen, AZ 85339","$450,000",5,3.5,2708,House for sale,33.37565,-112.20827,https://www.zillow.comhttps://www.zillow.com/homedetails/7013-W-Branham-Ln-Laveen-AZ-85339/71492503_zpid/
"2336 E Flower St, Phoenix, AZ 85016","$535,000",3,1.5,1212,House for sale,33.485985,-112.030815,https://www.zillow.comhttps://www.zillow.com/homedetails/2336-E-Flower-St-Phoenix-AZ-85016/7539491_zpid/
"4750 N Central Ave UNIT 12H, Phoenix, AZ 85012","$119,900",1,1,602,Condo for sale,33.507137,-112.07492,https://www.zillow.comhttps://www.zillow.com/homedetails/4750-N-Central-Ave-UNIT-12H-Phoenix-AZ-85012/72104389_zpid/
"2449 W Missouri Ave, Phoenix, AZ 85015","$89,900",2,1.5,1100,Condo for sale,33.515724,-112.11138,https://www.zillow.comhttps://www.zillow.com/homedetails/2449-W-Missouri-Ave-Phoenix-AZ-85015/443637332_zpid/
"801 E Siesta Dr, Phoenix, AZ 85042","$499,900",5,4,2632,Multi-family home for sale,33.364586,-112.06421,https://www.zillow.comhttps://www.zillow.com/homedetails/801-E-Siesta-Dr-Phoenix-AZ-85042/8133311_zpid/
"1950 E Kings Ave, Phoenix, AZ 85022","$410,000",3,2,1268,House for sale,33.636322,-112.039665,https://www.zillow.comhttps://www.zillow.com/homedetails/1950-E-Kings-Ave-Phoenix-AZ-85022/8004917_zpid/
"1736 W Pollack St, Phoenix, AZ 85041","$340,000",4,3.5,1992,House for sale,33.380238,-112.09621,https://www.zillow.comhttps://www.zillow.com/homedetails/1736-W-Pollack-St-Phoenix-AZ-85041/121861683_zpid/
"3248 E Windrose Dr, Phoenix, AZ 85032","$449,000",3,2,1886,House for sale,33.603024,-112.01108,https://www.zillow.comhttps://www.zillow.com/homedetails/3248-E-Windrose-Dr-Phoenix-AZ-85032/7814435_zpid/
"2929 E Sequoia Dr, Phoenix, AZ 85050","$340,000",3,2,1821,Home for sale,33.66414,-112.0202,https://www.zillow.comhttps://www.zillow.com/homedetails/2929-E-Sequoia-Dr-Phoenix-AZ-85050/7994152_zpid/
"6328 W Fawn Dr, Laveen, AZ 85339","$355,000",3,2,1405,House for sale,33.374756,-112.19599,https://www.zillow.comhttps://www.zillow.com/homedetails/6328-W-Fawn-Dr-Laveen-AZ-85339/71607665_zpid/
"8218 S 7th St, Phoenix, AZ 85042","$110,000",3,2,6352,Home for sale,33.371925,-112.06815,https://www.zillow.comhttps://www.zillow.com/homedetails/8218-S-7th-St-Phoenix-AZ-85042/284847334_zpid/
"8520 W Palm Ln UNIT 1131, Phoenix, AZ 85037","$278,000",3,2,1224,House for sale,33.4703,-112.24376,https://www.zillow.comhttps://www.zillow.com/homedetails/8520-W-Palm-Ln-UNIT-1131-Phoenix-AZ-85037/7474285_zpid/
"7336 S 48th Gln, Laveen, AZ 85339","$343,900",4,2.5,1638,Foreclosure,33.379967,-112.16378,https://www.zillow.comhttps://www.zillow.com/homedetails/7336-S-48th-Gln-Laveen-AZ-85339/81954220_zpid/
"2501 E Campbell Ave, Phoenix, AZ 85016","$625,000",4,2,2031,House for sale,33.50186,-112.02786,https://www.zillow.comhttps://www.zillow.com/homedetails/2501-E-Campbell-Ave-Phoenix-AZ-85016/7803020_zpid/
"649 N 67th Dr #25, Phoenix, AZ 85043","$135,000",3,2,1344,Home for sale,33.4566,-112.20383,https://www.zillow.comhttps://www.zillow.com/homedetails/649-N-67th-Dr-25-Phoenix-AZ-85043/443971801_zpid/
"1410 S 24th Ave, Phoenix, AZ 85009","$350,000",4,2,1800,Multi-family home for sale,33.434704,-112.11099,https://www.zillow.comhttps://www.zillow.com/homedetails/1410-S-24th-Ave-Phoenix-AZ-85009/81998419_zpid/
"4330 E Desert Trumpet Rd, Phoenix, AZ 85044","$389,000",2,2,947,House for sale,33.314255,-111.990555,https://www.zillow.comhttps://www.zillow.com/homedetails/4330-E-Desert-Trumpet-Rd-Phoenix-AZ-85044/8164808_zpid/
"18049 N 13th Ave, Phoenix, AZ 85023","$800,000",4,2.5,3231,House for sale,33.65079,-112.088844,https://www.zillow.comhttps://www.zillow.com/homedetails/18049-N-13th-Ave-Phoenix-AZ-85023/7956541_zpid/
"1420 E Sonrisas St, Phoenix, AZ 85040","$360,000",2,2.5,1302,House for sale,33.400944,-112.05067,https://www.zillow.comhttps://www.zillow.com/homedetails/1420-E-Sonrisas-St-Phoenix-AZ-85040/61627387_zpid/
"9245 S 4th Ave, Phoenix, AZ 85041","$399,990",5,3,1283,House for sale,33.36154,-112.07974,https://www.zillow.comhttps://www.zillow.com/homedetails/9245-S-4th-Ave-Phoenix-AZ-85041/8132704_zpid/
"4132 N 42nd St, Phoenix, AZ 85018","$1,628,000",4,3.5,2552,House for sale,33.496197,-111.99146,https://www.zillow.comhttps://www.zillow.com/homedetails/4132-N-42nd-St-Phoenix-AZ-85018/7836136_zpid/
"28021 N 23rd Dr, Phoenix, AZ 85085","$570,000",3,2.5,2152,House for sale,33.73928,-112.1088,https://www.zillow.comhttps://www.zillow.com/homedetails/28021-N-23rd-Dr-Phoenix-AZ-85085/55265876_zpid/
"3125 W Desert Ln, Laveen, AZ 85339","$724,900",4,2.5,3458,House for sale,33.37233,-112.12772,https://www.zillow.comhttps://www.zillow.com/homedetails/3125-W-Desert-Ln-Laveen-AZ-85339/71621685_zpid/
"1226 W Purdue Ave, Phoenix, AZ 85021","$380,000",6,6,2700,House for sale,33.574245,-112.0889,https://www.zillow.comhttps://www.zillow.com/homedetails/1226-W-Purdue-Ave-Phoenix-AZ-85021/7782026_zpid/
"3946 W Holly St, Phoenix, AZ 85009","$259,990",3,1,1210,House for sale,33.471222,-112.14494,https://www.zillow.comhttps://www.zillow.com/homedetails/3946-W-Holly-St-Phoenix-AZ-85009/7512711_zpid/
"7719 N 17th Ave, Phoenix, AZ 85021","$599,800",4,2,1773,House for sale,33.550194,-112.095825,https://www.zillow.comhttps://www.zillow.com/homedetails/7719-N-17th-Ave-Phoenix-AZ-85021/7777075_zpid/
"9456 W Jamestown Rd, Phoenix, AZ 85037","$349,500",4,2.5,2461,House for sale,33.47622,-112.26298,https://www.zillow.comhttps://www.zillow.com/homedetails/9456-W-Jamestown-Rd-Phoenix-AZ-85037/62727148_zpid/
"1337 E Paseo Way, Phoenix, AZ 85042","$975,000",4,3.5,3143,House for sale,33.36205,-112.05506,https://www.zillow.comhttps://www.zillow.com/homedetails/1337-E-Paseo-Way-Phoenix-AZ-85042/284855661_zpid/
"3808 E Fairmount Ave, Phoenix, AZ 85018","$1,650,000",4,3.5,2798,House for sale,33.492886,-111.99931,https://www.zillow.comhttps://www.zillow.com/homedetails/3808-E-Fairmount-Ave-Phoenix-AZ-85018/7564283_zpid/
"4437 E Villa Theresa Dr, Phoenix, AZ 85032","$515,000",4,2.5,1748,House for sale,33.654694,-111.98452,https://www.zillow.comhttps://www.zillow.com/homedetails/4437-E-Villa-Theresa-Dr-Phoenix-AZ-85032/8017193_zpid/
"1607 W Shangri La Rd, Phoenix, AZ 85029","$390,000",4,3,2073,House for sale,33.58731,-112.093636,https://www.zillow.comhttps://www.zillow.com/homedetails/1607-W-Shangri-La-Rd-Phoenix-AZ-85029/7784827_zpid/
"23638 N 41st Ave, Glendale, AZ 85310","$475,000",3,2,1856,House for sale,33.701313,-112.14865,https://www.zillow.comhttps://www.zillow.com/homedetails/23638-N-41st-Ave-Glendale-AZ-85310/89664869_zpid/
"3917 E Patrick Ln, Phoenix, AZ 85050","$1,500,000",4,2.5,3170,House for sale,33.69406,-111.99113,https://www.zillow.comhttps://www.zillow.com/homedetails/3917-E-Patrick-Ln-Phoenix-AZ-85050/62731178_zpid/
"6701 W Catalina Dr, Phoenix, AZ 85033","$375,000",3,2,1350,House for sale,33.482708,-112.20353,https://www.zillow.comhttps://www.zillow.com/homedetails/6701-W-Catalina-Dr-Phoenix-AZ-85033/7468708_zpid/
"2941 E Darrow St, Phoenix, AZ 85042","$324,000",2,2,1205,Townhouse for sale,33.37875,-112.01854,https://www.zillow.comhttps://www.zillow.com/homedetails/2941-E-Darrow-St-Phoenix-AZ-85042/71619613_zpid/
"514 E Pearce Rd, Phoenix, AZ 85042","$575,000",3,2,3100,House for sale,33.35552,-112.06766,https://www.zillow.comhttps://www.zillow.com/homedetails/514-E-Pearce-Rd-Phoenix-AZ-85042/95105269_zpid/
"121 N 28th Ave, Phoenix, AZ 85009","$220,000",3,2,1058,House for sale,33.450043,-112.11981,https://www.zillow.comhttps://www.zillow.com/homedetails/121-N-28th-Ave-Phoenix-AZ-85009/7514546_zpid/
"5750 W T Ryan Ln, Laveen, AZ 85339","$445,000",5,3,2854,House for sale,33.39003,-112.18222,https://www.zillow.comhttps://www.zillow.com/homedetails/5750-W-T-Ryan-Ln-Laveen-AZ-85339/60975834_zpid/
"2650 W Union Hills Dr LOT 245, Phoenix, AZ 85027","$39,000",1,1,840,Home for sale,33.656467,-112.11697,https://www.zillow.comhttps://www.zillow.com/homedetails/2650-W-Union-Hills-Dr-LOT-245-Phoenix-AZ-85027/453317868_zpid/
"12042 S 44th St, Phoenix, AZ 85044","$655,000",4,3,2383,House for sale,33.336636,-111.98888,https://www.zillow.comhttps://www.zillow.com/homedetails/12042-S-44th-St-Phoenix-AZ-85044/8258380_zpid/
"6302 N 13th Pl, Phoenix, AZ 85014","$650,000",2,2,1605,House for sale,33.529305,-112.05272,https://www.zillow.comhttps://www.zillow.com/homedetails/6302-N-13th-Pl-Phoenix-AZ-85014/7797490_zpid/
"6830 W McKinley St, Phoenix, AZ 85043","$58,000",1,1,980,Home for sale,33.456802,-112.20679,https://www.zillow.comhttps://www.zillow.com/homedetails/6830-W-McKinley-St-Phoenix-AZ-85043/2060415172_zpid/
"1516 W Shangri La Rd, Phoenix, AZ 85029","$385,000",2,2,1321,For sale by owner,33.587723,-112.09183,https://www.zillow.comhttps://www.zillow.com/homedetails/1516-W-Shangri-La-Rd-Phoenix-AZ-85029/7784808_zpid/
"3334 E Southern Ave LOT 36, Phoenix, AZ 85040","$10,000",3,1,720,Home for sale,33.394154,-112.0094,https://www.zillow.comhttps://www.zillow.com/homedetails/3334-E-Southern-Ave-LOT-36-Phoenix-AZ-85040/453002550_zpid/
"1105 W Anderson Dr, Phoenix, AZ 85023","$400,000",3,2,1339,House for sale,33.642754,-112.08838,https://www.zillow.comhttps://www.zillow.com/homedetails/1105-W-Anderson-Dr-Phoenix-AZ-85023/7963537_zpid/
"5542 W Big Oak St, Phoenix, AZ 85083","$1,075,000",4,3,4863,House for sale,33.73419,-112.179504,https://www.zillow.comhttps://www.zillow.com/homedetails/5542-W-Big-Oak-St-Phoenix-AZ-85083/95171933_zpid/
"1306 E Fillmore St, Phoenix, AZ 85006","$530,000",3,3,1387,Multi-family home for sale,33.45512,-112.054016,https://www.zillow.comhttps://www.zillow.com/homedetails/1306-E-Fillmore-St-Phoenix-AZ-85006/7529591_zpid/
"3614 W Danbury Dr, Glendale, AZ 85308","$439,000",3,2,1505,House for sale,33.641766,-112.13679,https://www.zillow.comhttps://www.zillow.com/homedetails/3614-W-Danbury-Dr-Glendale-AZ-85308/7947593_zpid/
"16021 N 30th St UNIT 122, Phoenix, AZ 85032","$334,900",3,3,1426,Townhouse for sale,33.63228,-112.01599,https://www.zillow.comhttps://www.zillow.com/homedetails/16021-N-30th-St-UNIT-122-Phoenix-AZ-85032/81973401_zpid/
"8170 W Groom Creek Rd, Phoenix, AZ 85043","$280,000",3,3,1534,Townhouse for sale,33.464268,-112.23445,https://www.zillow.comhttps://www.zillow.com/homedetails/8170-W-Groom-Creek-Rd-Phoenix-AZ-85043/87799673_zpid/
"710 W Ardmore Rd, Phoenix, AZ 85041","$669,900",5,3,2862,House for sale,33.36898,-112.08388,https://www.zillow.comhttps://www.zillow.com/homedetails/710-W-Ardmore-Rd-Phoenix-AZ-85041/95070823_zpid/
"7619 W Clarendon Ave, Phoenix, AZ 85033","$299,995",3,2,1106,House for sale,33.491566,-112.22398,https://www.zillow.comhttps://www.zillow.com/homedetails/7619-W-Clarendon-Ave-Phoenix-AZ-85033/7478200_zpid/
"4515 N 36th Way, Phoenix, AZ 85018","$2,385,000",4,4.5,4027,House for sale,33.50289,-112.00062,https://www.zillow.comhttps://www.zillow.com/homedetails/4515-N-36th-Way-Phoenix-AZ-85018/146218870_zpid/
"7325 W Wilshire Dr, Phoenix, AZ 85035","$285,000",3,2.5,1579,Foreclosure,33.474648,-112.21714,https://www.zillow.comhttps://www.zillow.com/homedetails/7325-W-Wilshire-Dr-Phoenix-AZ-85035/95102892_zpid/
"17232 N 29th Ave, Phoenix, AZ 85053","$388,000",3,2,1316,House for sale,33.64263,-112.12211,https://www.zillow.comhttps://www.zillow.com/homedetails/17232-N-29th-Ave-Phoenix-AZ-85053/7942147_zpid/
"22204 N 55th St, Phoenix, AZ 85054","$1,030,000",3,2,2449,House for sale,33.68777,-111.95794,https://www.zillow.comhttps://www.zillow.com/homedetails/22204-N-55th-St-Phoenix-AZ-85054/7989473_zpid/
"3018 W Country Club Ter, Phoenix, AZ 85027","$420,000",3,2,1608,House for sale,33.691772,-112.12306,https://www.zillow.comhttps://www.zillow.com/homedetails/3018-W-Country-Club-Ter-Phoenix-AZ-85027/7932944_zpid/
"2562 E Wier Ave, Phoenix, AZ 85040","$269,000",2,1,874,House for sale,33.403545,-112.02428,https://www.zillow.comhttps://www.zillow.com/homedetails/2562-E-Wier-Ave-Phoenix-AZ-85040/7547995_zpid/
"4257 E Marino Dr, Phoenix, AZ 85032","$424,900",3,2,1675,House for sale,33.650555,-111.98934,https://www.zillow.comhttps://www.zillow.com/homedetails/4257-E-Marino-Dr-Phoenix-AZ-85032/8017738_zpid/
"6627 S 42nd Pl, Phoenix, AZ 85042","$374,000",3,2,1176,House for sale,33.386677,-111.990166,https://www.zillow.comhttps://www.zillow.com/homedetails/6627-S-42nd-Pl-Phoenix-AZ-85042/7555539_zpid/
"6722 W Taylor St #294, Phoenix, AZ 85043","$140,000",4,2,1475,Home for sale,33.45425,-112.20571,https://www.zillow.comhttps://www.zillow.com/homedetails/6722-W-Taylor-St-294-Phoenix-AZ-85043/2057130744_zpid/
"14042 N 44th St, Phoenix, AZ 85032","$635,000",4,2,1937,House for sale,33.61519,-111.98685,https://www.zillow.comhttps://www.zillow.com/homedetails/14042-N-44th-St-Phoenix-AZ-85032/8030347_zpid/
"3713 W Nancy Ln, Phoenix, AZ 85041","$394,900",3,2,1458,House for sale,33.389374,-112.13859,https://www.zillow.comhttps://www.zillow.com/homedetails/3713-W-Nancy-Ln-Phoenix-AZ-85041/67774260_zpid/
"8501 W Highland Ave, Phoenix, AZ 85037","$370,000",3,2,1323,House for sale,33.505157,-112.24246,https://www.zillow.comhttps://www.zillow.com/homedetails/8501-W-Highland-Ave-Phoenix-AZ-85037/7483669_zpid/
"17411 N 36th St, Phoenix, AZ 85032","$479,999",3,2,1370,House for sale,33.64389,-112.00304,https://www.zillow.comhttps://www.zillow.com/homedetails/17411-N-36th-St-Phoenix-AZ-85032/7998231_zpid/
"5735 N 32nd Dr, Phoenix, AZ 85017","$325,000",3,2,1751,House for sale,33.521908,-112.128815,https://www.zillow.comhttps://www.zillow.com/homedetails/5735-N-32nd-Dr-Phoenix-AZ-85017/7762653_zpid/
"4656 E Beck Ln, Phoenix, AZ 85032","$580,000",3,2.5,2020,House for sale,33.627483,-111.9802,https://www.zillow.comhttps://www.zillow.com/homedetails/4656-E-Beck-Ln-Phoenix-AZ-85032/123848050_zpid/
"1174 E Belmont Ave, Phoenix, AZ 85020","$425,000",3,2,1334,Townhouse for sale,33.549183,-112.05712,https://www.zillow.comhttps://www.zillow.com/homedetails/1174-E-Belmont-Ave-Phoenix-AZ-85020/7791255_zpid/
"2221 E Lynne Ln, Phoenix, AZ 85042","$319,900",4,2,1196,House for sale,33.391197,-112.0334,https://www.zillow.comhttps://www.zillow.com/homedetails/2221-E-Lynne-Ln-Phoenix-AZ-85042/7547542_zpid/
"14439 N 38th Pl, Phoenix, AZ 85032","$399,900",3,2,1344,House for sale,33.618755,-111.99717,https://www.zillow.comhttps://www.zillow.com/homedetails/14439-N-38th-Pl-Phoenix-AZ-85032/8012624_zpid/
"5314 N Las Casitas Pl, Phoenix, AZ 85016","$525,000",2,2,1538,Townhouse for sale,33.515137,-112.04528,https://www.zillow.comhttps://www.zillow.com/homedetails/5314-N-Las-Casitas-Pl-Phoenix-AZ-85016/7809318_zpid/
"3236 E Chandler Blvd UNIT 2003, Phoenix, AZ 85048","$285,000",2,1,1093,Townhouse for sale,33.30555,-112.01174,https://www.zillow.comhttps://www.zillow.com/homedetails/3236-E-Chandler-Blvd-UNIT-2003-Phoenix-AZ-85048/68960592_zpid/
"8051 W Mariposa Dr, Phoenix, AZ 85033","$340,000",3,2,1078,House for sale,33.50714,-112.23328,https://www.zillow.comhttps://www.zillow.com/homedetails/8051-W-Mariposa-Dr-Phoenix-AZ-85033/7482627_zpid/
"14801 S 8th St, Phoenix, AZ 85048","$675,000",4,2.5,2347,House for sale,33.3124,-112.06279,https://www.zillow.comhttps://www.zillow.com/homedetails/14801-S-8th-St-Phoenix-AZ-85048/8133724_zpid/
"3801 E Captain Dreyfus Ave, Phoenix, AZ 85032","$425,000",3,2,1264,House for sale,33.604862,-111.99912,https://www.zillow.comhttps://www.zillow.com/homedetails/3801-E-Captain-Dreyfus-Ave-Phoenix-AZ-85032/7814266_zpid/
"10006 N 7th Pl, Phoenix, AZ 85020","$445,000",4,2,1902,House for sale,33.57715,-112.06385,https://www.zillow.comhttps://www.zillow.com/homedetails/10006-N-7th-Pl-Phoenix-AZ-85020/67801980_zpid/
"6808 N 11th St, Phoenix, AZ 85014","$649,900",4,2,1729,House for sale,33.536705,-112.05917,https://www.zillow.comhttps://www.zillow.com/homedetails/6808-N-11th-St-Phoenix-AZ-85014/7796162_zpid/
"5408 W Allen St, Laveen, AZ 85339","$420,000",3,2,2149,House for sale,33.368282,-112.17516,https://www.zillow.comhttps://www.zillow.com/homedetails/5408-W-Allen-St-Laveen-AZ-85339/89026475_zpid/
"5814 E Camelback Rd, Phoenix, AZ 85018","$8,999,000",5,5,6243,House for sale,33.502357,-111.955986,https://www.zillow.comhttps://www.zillow.com/homedetails/5814-E-Camelback-Rd-Phoenix-AZ-85018/121861049_zpid/
"3901 E Pinnacle Peak Rd LOT 193, Phoenix, AZ 85050","$205,000",2,2,1400,Home for sale,33.692062,-111.99858,https://www.zillow.comhttps://www.zillow.com/homedetails/3901-E-Pinnacle-Peak-Rd-LOT-193-Phoenix-AZ-85050/2058094317_zpid/
"3150 E Beardsley Rd UNIT 1091, Phoenix, AZ 85050","$369,000",3,2.5,1361,Condo for sale,33.670532,-112.01523,https://www.zillow.comhttps://www.zillow.com/homedetails/3150-E-Beardsley-Rd-UNIT-1091-Phoenix-AZ-85050/55120137_zpid/
"20419 N 34th St, Phoenix, AZ 85050","$450,000",3,2,1564,House for sale,33.67207,-112.010124,https://www.zillow.comhttps://www.zillow.com/homedetails/20419-N-34th-St-Phoenix-AZ-85050/7991885_zpid/
"10601 N 36th St, Phoenix, AZ 85028","$525,000",4,2,1629,House for sale,33.582874,-112.00415,https://www.zillow.comhttps://www.zillow.com/homedetails/10601-N-36th-St-Phoenix-AZ-85028/7819589_zpid/
"4406 E Carter Dr, Phoenix, AZ 85042","$297,900",2,2,863,House for sale,33.38297,-111.98642,https://www.zillow.comhttps://www.zillow.com/homedetails/4406-E-Carter-Dr-Phoenix-AZ-85042/7552312_zpid/
"1211 E Desert Flower Ln, Phoenix, AZ 85048","$1,098,000",5,3.5,3849,House for sale,33.318863,-112.05901,https://www.zillow.comhttps://www.zillow.com/homedetails/1211-E-Desert-Flower-Ln-Phoenix-AZ-85048/8135500_zpid/
"4312 E Roma Ave, Phoenix, AZ 85018","$1,250,000",3,2.5,2274,House for sale,33.500957,-111.98831,https://www.zillow.comhttps://www.zillow.com/homedetails/4312-E-Roma-Ave-Phoenix-AZ-85018/7835982_zpid/
"1425 E Diamond St, Phoenix, AZ 85006","$499,900",4,3,1421,House for sale,33.459354,-112.050835,https://www.zillow.comhttps://www.zillow.com/homedetails/1425-E-Diamond-St-Phoenix-AZ-85006/7530674_zpid/
"5710 E Camelback Rd, Phoenix, AZ 85018","$2,590,000",5,5.5,4592,House for sale,33.502525,-111.95828,https://www.zillow.comhttps://www.zillow.com/homedetails/5710-E-Camelback-Rd-Phoenix-AZ-85018/7838284_zpid/
"4135 N 17th St APT 11, Phoenix, AZ 85016","$265,000",2,2,1152,Townhouse for sale,33.495865,-112.044685,https://www.zillow.comhttps://www.zillow.com/homedetails/4135-N-17th-St-APT-11-Phoenix-AZ-85016/7804348_zpid/
"4822 N 63rd Ln, Phoenix, AZ 85033","$420,000",4,2,2074,House for sale,33.508175,-112.19702,https://www.zillow.comhttps://www.zillow.com/homedetails/4822-N-63rd-Ln-Phoenix-AZ-85033/7712245_zpid/
"3032 W Red Fox Rd, Phoenix, AZ 85083","$434,900",3,2,1299,House for sale,33.739838,-112.12509,https://www.zillow.comhttps://www.zillow.com/homedetails/3032-W-Red-Fox-Rd-Phoenix-AZ-85083/54824629_zpid/
"14609 S 24th Way, Phoenix, AZ 85048","$889,000",5,3,3200,House for sale,33.31407,-112.027176,https://www.zillow.comhttps://www.zillow.com/homedetails/14609-S-24th-Way-Phoenix-AZ-85048/8160977_zpid/
"15848 N 32nd Pl, Phoenix, AZ 85032","$464,500",3,2,1623,House for sale,33.631653,-112.01302,https://www.zillow.comhttps://www.zillow.com/homedetails/15848-N-32nd-Pl-Phoenix-AZ-85032/8007178_zpid/
"3840 N 43rd Ave APT 71, Phoenix, AZ 85031","$130,000",2,1.5,980,Townhouse for sale,33.492863,-112.1537,https://www.zillow.comhttps://www.zillow.com/homedetails/3840-N-43rd-Ave-APT-71-Phoenix-AZ-85031/7508009_zpid/
"330 N 18th Ave, Phoenix, AZ 85007","$100,000",,,,Multi-family home for sale,33.452637,-112.09849,https://www.zillow.comhttps://www.zillow.com/homedetails/330-N-18th-Ave-Phoenix-AZ-85007/2090034798_zpid/
"4501 W Crittenden Ln, Phoenix, AZ 85031","$294,990",3,1,962,House for sale,33.48907,-112.15618,https://www.zillow.comhttps://www.zillow.com/homedetails/4501-W-Crittenden-Ln-Phoenix-AZ-85031/7508269_zpid/
"4213 W Calle Lejos, Glendale, AZ 85310","$460,000",3,2,1605,House for sale,33.70452,-112.1508,https://www.zillow.comhttps://www.zillow.com/homedetails/4213-W-Calle-Lejos-Glendale-AZ-85310/7930002_zpid/
"4802 N 46th St, Phoenix, AZ 85018","$4,500,000",4,3.5,4996,House for sale,33.505016,-111.98227,https://www.zillow.comhttps://www.zillow.com/homedetails/4802-N-46th-St-Phoenix-AZ-85018/7836556_zpid/
"4507 E Saint Catherine Ave, Phoenix, AZ 85042","$350,000",3,1.75,1462,House for sale,33.38851,-111.984985,https://www.zillow.comhttps://www.zillow.com/homedetails/4507-E-Saint-Catherine-Ave-Phoenix-AZ-85042/66655964_zpid/
"4243 E Avalon Dr, Phoenix, AZ 85018","$1,495,000",4,3,2704,House for sale,33.48321,-111.98929,https://www.zillow.comhttps://www.zillow.com/homedetails/4243-E-Avalon-Dr-Phoenix-AZ-85018/7563773_zpid/
"18223 N 21st Pl #52, Phoenix, AZ 85022","$149,900",3,2,1344,Home for sale,33.652267,-112.036446,https://www.zillow.comhttps://www.zillow.com/homedetails/18223-N-21st-Pl-52-Phoenix-AZ-85022/2062660652_zpid/
"2311 E Hartford Ave UNIT 29, Phoenix, AZ 85022","$275,000",2,1.5,1008,Townhouse for sale,33.642372,-112.03201,https://www.zillow.comhttps://www.zillow.com/homedetails/2311-E-Hartford-Ave-UNIT-29-Phoenix-AZ-85022/88795468_zpid/
"6717 N 15th Pl, Phoenix, AZ 85014","$630,000",3,2,2051,House for sale,33.535282,-112.04784,https://www.zillow.comhttps://www.zillow.com/homedetails/6717-N-15th-Pl-Phoenix-AZ-85014/7795901_zpid/
"5044 N 18th Ave, Phoenix, AZ 85015","$495,000",3,2,1490,House for sale,33.51115,-112.09778,https://www.zillow.comhttps://www.zillow.com/homedetails/5044-N-18th-Ave-Phoenix-AZ-85015/7775953_zpid/
"3202 E Orange Dr, Phoenix, AZ 85018","$1,199,000",4,4,2823,House for sale,33.513466,-112.012695,https://www.zillow.comhttps://www.zillow.com/homedetails/3202-E-Orange-Dr-Phoenix-AZ-85018/7833049_zpid/
"13 W Silverwood Dr, Phoenix, AZ 85045","$735,000",5,3,2823,House for sale,33.300644,-112.08018,https://www.zillow.comhttps://www.zillow.com/homedetails/13-W-Silverwood-Dr-Phoenix-AZ-85045/8134591_zpid/
"1652 W Estes Way, Phoenix, AZ 85041","$455,000",3,2,1803,House for sale,33.36123,-112.09573,https://www.zillow.comhttps://www.zillow.com/homedetails/1652-W-Estes-Way-Phoenix-AZ-85041/444413482_zpid/
"3021 W Angela Dr, Phoenix, AZ 85053","$474,900",3,2,1754,House for sale,33.64569,-112.12457,https://www.zillow.comhttps://www.zillow.com/homedetails/3021-W-Angela-Dr-Phoenix-AZ-85053/7942249_zpid/
"13039 N 19th Ave, Phoenix, AZ 85029","$399,900",5,3,1880,House for sale,33.606445,-112.09925,https://www.zillow.comhttps://www.zillow.com/homedetails/13039-N-19th-Ave-Phoenix-AZ-85029/7784305_zpid/
"31038 N 40th Pl, Cave Creek, AZ 85331","$480,000",3,2,1535,House for sale,33.767326,-111.995186,https://www.zillow.comhttps://www.zillow.com/homedetails/31038-N-40th-Pl-Cave-Creek-AZ-85331/7978789_zpid/
"1617 N 22nd Pl, Phoenix, AZ 85006","$399,900",3,2,1528,House for sale,33.466507,-112.03335,https://www.zillow.comhttps://www.zillow.com/homedetails/1617-N-22nd-Pl-Phoenix-AZ-85006/7531535_zpid/
"733 W El Camino Dr, Phoenix, AZ 85021","$2,600,000",5,5,4800,House for sale,33.5568,-112.08416,https://www.zillow.comhttps://www.zillow.com/homedetails/733-W-El-Camino-Dr-Phoenix-AZ-85021/7780463_zpid/
"2045 S 6th Ave, Phoenix, AZ 85003","$250,000",2,2,1372,House for sale,33.428486,-112.081215,https://www.zillow.comhttps://www.zillow.com/homedetails/2045-S-6th-Ave-Phoenix-AZ-85003/7523311_zpid/
"4941 W Capistrano Ave, Laveen, AZ 85339","$559,223",3,2,2305,House for sale,33.35046,-112.166405,https://www.zillow.comhttps://www.zillow.com/homedetails/4941-W-Capistrano-Ave-Laveen-AZ-85339/352635471_zpid/
"1425 E Desert Cove Ave UNIT 32, Phoenix, AZ 85020","$250,000",2,2,1592,Townhouse for sale,33.5846,-112.05146,https://www.zillow.comhttps://www.zillow.com/homedetails/1425-E-Desert-Cove-Ave-UNIT-32-Phoenix-AZ-85020/2125927538_zpid/
"16414 S 36th St, Phoenix, AZ 85048","$609,000",3,2,1961,House for sale,33.296673,-112.00631,https://www.zillow.comhttps://www.zillow.com/homedetails/16414-S-36th-St-Phoenix-AZ-85048/8163091_zpid/
"4920 E Osborn Rd, Phoenix, AZ 85018","$1,650,000",4,3,3009,House for sale,33.487663,-111.9744,https://www.zillow.comhttps://www.zillow.com/homedetails/4920-E-Osborn-Rd-Phoenix-AZ-85018/7565946_zpid/
"3810 N Maryvale Pkwy APT 2077, Phoenix, AZ 85031","$95,000",1,1,672,Condo for sale,33.49163,-112.17556,https://www.zillow.comhttps://www.zillow.com/homedetails/3810-N-Maryvale-Pkwy-APT-2077-Phoenix-AZ-85031/7489919_zpid/
"4214 W Marco Polo Rd, Glendale, AZ 85308","$550,000",4,2,1782,House for sale,33.6665,-112.150536,https://www.zillow.comhttps://www.zillow.com/homedetails/4214-W-Marco-Polo-Rd-Glendale-AZ-85308/59266244_zpid/
"19401 N 7th St LOT 119, Phoenix, AZ 85024","$85,000",3,1.5,1440,Home for sale,33.66116,-112.0615,https://www.zillow.comhttps://www.zillow.com/homedetails/19401-N-7th-St-LOT-119-Phoenix-AZ-85024/449044570_zpid/
"4117 W Whispering Wind Dr, Glendale, AZ 85310","$425,000",3,2,1405,House for sale,33.70987,-112.14941,https://www.zillow.comhttps://www.zillow.com/homedetails/4117-W-Whispering-Wind-Dr-Glendale-AZ-85310/7931027_zpid/
"4933 W Capistrano Ave, Laveen, AZ 85339","$634,173",3,2.5,2300,New construction,33.350456,-112.16598,https://www.zillow.comhttps://www.zillow.com/homedetails/4933-W-Capistrano-Ave-Laveen-AZ-85339/352635473_zpid/
"3910 W Kings Ave, Phoenix, AZ 85053","$449,999",3,2,1707,House for sale,33.635292,-112.14313,https://www.zillow.comhttps://www.zillow.com/homedetails/3910-W-Kings-Ave-Phoenix-AZ-85053/7946491_zpid/
"101 N 7th St UNIT 168, Phoenix, AZ 85034","$384,900",2,2,1161,Apartment for sale,33.45,-112.06368,https://www.zillow.comhttps://www.zillow.com/homedetails/101-N-7th-St-UNIT-168-Phoenix-AZ-85034/7530329_zpid/
"1367 E Mitchell Dr, Phoenix, AZ 85014","$625,000",3,3,1568,House for sale,33.48816,-112.05241,https://www.zillow.comhttps://www.zillow.com/homedetails/1367-E-Mitchell-Dr-Phoenix-AZ-85014/7534557_zpid/
"522 W Cambridge Ave, Phoenix, AZ 85003","$849,900",3,2,1793,House for sale,33.47792,-112.08148,https://www.zillow.comhttps://www.zillow.com/homedetails/522-W-Cambridge-Ave-Phoenix-AZ-85003/7536080_zpid/
"2753 E Aster Dr, Phoenix, AZ 85032","$613,000",4,2,1551,House for sale,33.60127,-112.02289,https://www.zillow.comhttps://www.zillow.com/homedetails/2753-E-Aster-Dr-Phoenix-AZ-85032/7820590_zpid/
"11215 N 38th Ave, Phoenix, AZ 85029","$515,000",4,2,1821,House for sale,33.587875,-112.1402,https://www.zillow.comhttps://www.zillow.com/homedetails/11215-N-38th-Ave-Phoenix-AZ-85029/7743871_zpid/
"5808 S 12th Ln, Phoenix, AZ 85041","$399,900",4,2,1470,House for sale,33.393986,-112.08788,https://www.zillow.comhttps://www.zillow.com/homedetails/5808-S-12th-Ln-Phoenix-AZ-85041/2061670841_zpid/
"1002 W Kachina Trl, Phoenix, AZ 85041","$53,475",3,2,1024,Home for sale,33.357273,-112.08883,https://www.zillow.comhttps://www.zillow.com/homedetails/1002-W-Kachina-Trl-Phoenix-AZ-85041/450693370_zpid/
"4602 N 50th Ave, Phoenix, AZ 85031","$314,999",3,2,1715,House for sale,33.504517,-112.16725,https://www.zillow.comhttps://www.zillow.com/homedetails/4602-N-50th-Ave-Phoenix-AZ-85031/7720656_zpid/
"1708 W Gambit Trl, Phoenix, AZ 85085","$1,200,000",4,4,4148,House for sale,33.73591,-112.095795,https://www.zillow.comhttps://www.zillow.com/homedetails/1708-W-Gambit-Trl-Phoenix-AZ-85085/82823728_zpid/
"4050 E Agave Rd, Phoenix, AZ 85044","$510,000",4,2,1671,House for sale,33.321514,-111.99826,https://www.zillow.comhttps://www.zillow.com/homedetails/4050-E-Agave-Rd-Phoenix-AZ-85044/8255259_zpid/
"2121 W Tonto St, Phoenix, AZ 85009","$200,000",2,2,984,House for sale,33.438305,-112.10535,https://www.zillow.comhttps://www.zillow.com/homedetails/2121-W-Tonto-St-Phoenix-AZ-85009/7515871_zpid/
"6240 N 16th St UNIT 45, Phoenix, AZ 85016","$220,000",2,2,1191,Condo for sale,33.528526,-112.048515,https://www.zillow.comhttps://www.zillow.com/homedetails/6240-N-16th-St-UNIT-45-Phoenix-AZ-85016/7797045_zpid/
"2201 W Wethersfield Rd, Phoenix, AZ 85029","$350,000",3,2,1255,House for sale,33.597088,-112.10571,https://www.zillow.comhttps://www.zillow.com/homedetails/2201-W-Wethersfield-Rd-Phoenix-AZ-85029/7738646_zpid/
"27420 N 63rd Dr, Phoenix, AZ 85083","$480,000",4,3,2252,House for sale,33.73495,-112.19584,https://www.zillow.comhttps://www.zillow.com/homedetails/27420-N-63rd-Dr-Phoenix-AZ-85083/61628777_zpid/
"4532 E Sandra Ter, Phoenix, AZ 85032","$1,099,000",4,2,2497,House for sale,33.635265,-111.98341,https://www.zillow.comhttps://www.zillow.com/homedetails/4532-E-Sandra-Ter-Phoenix-AZ-85032/8019667_zpid/
"4708 N 41st Pl, Phoenix, AZ 85018","$4,095,000",5,5.5,4553,House for sale,33.506985,-111.992485,https://www.zillow.comhttps://www.zillow.com/homedetails/4708-N-41st-Pl-Phoenix-AZ-85018/284927918_zpid/
"18845 N 43rd St, Phoenix, AZ 85050","$575,000",3,2.5,1963,House for sale,33.65876,-111.989265,https://www.zillow.comhttps://www.zillow.com/homedetails/18845-N-43rd-St-Phoenix-AZ-85050/8015005_zpid/
"4814 N 35th St, Phoenix, AZ 85018","$1,395,000",4,3,2159,House for sale,33.50842,-112.00691,https://www.zillow.comhttps://www.zillow.com/homedetails/4814-N-35th-St-Phoenix-AZ-85018/7833336_zpid/
"4807 W Saint Anne Ave, Laveen, AZ 85339","$415,000",4,2.5,1702,House for sale,33.38629,-112.16203,https://www.zillow.comhttps://www.zillow.com/homedetails/4807-W-Saint-Anne-Ave-Laveen-AZ-85339/95129309_zpid/
"22039 N 35th Dr, Glendale, AZ 85310","$355,000",2,2,893,House for sale,33.68624,-112.13526,https://www.zillow.comhttps://www.zillow.com/homedetails/22039-N-35th-Dr-Glendale-AZ-85310/7937409_zpid/
"3829 W Camino Del Rio, Glendale, AZ 85310","$414,900",3,2.5,1759,House for sale,33.69995,-112.142044,https://www.zillow.comhttps://www.zillow.com/homedetails/3829-W-Camino-Del-Rio-Glendale-AZ-85310/7929720_zpid/
"4441 S 8th St, Phoenix, AZ 85040","$335,000",4,2,1320,House for sale,33.405178,-112.06209,https://www.zillow.comhttps://www.zillow.com/homedetails/4441-S-8th-St-Phoenix-AZ-85040/7524918_zpid/
"3029 E Elm St, Phoenix, AZ 85016","$1,325,000",4,4,2778,House for sale,33.50689,-112.01609,https://www.zillow.comhttps://www.zillow.com/homedetails/3029-E-Elm-St-Phoenix-AZ-85016/7803336_zpid/
"1338 E Granada Rd, Phoenix, AZ 85006","$839,999",4,4,1850,House for sale,33.468723,-112.05255,https://www.zillow.comhttps://www.zillow.com/homedetails/1338-E-Granada-Rd-Phoenix-AZ-85006/7533156_zpid/
"1134 E Brown St, Phoenix, AZ 85020","$249,900",1,1,1424,House for sale,33.577835,-112.0574,https://www.zillow.comhttps://www.zillow.com/homedetails/1134-E-Brown-St-Phoenix-AZ-85020/7787479_zpid/
"4313 N 29th Way, Phoenix, AZ 85016","$465,000",2,2,1355,House for sale,33.49927,-112.01795,https://www.zillow.comhttps://www.zillow.com/homedetails/4313-N-29th-Way-Phoenix-AZ-85016/7802907_zpid/
"5915 E Calle Del Sud, Phoenix, AZ 85018","$10,000,000",5,6.5,8284,New construction,33.495506,-111.953674,https://www.zillow.comhttps://www.zillow.com/homedetails/5915-E-Calle-Del-Sud-Phoenix-AZ-85018/81960345_zpid/
"31 W Marlette Ave, Phoenix, AZ 85013","$1,750,000",5,4.5,4135,House for sale,33.52855,-112.07517,https://www.zillow.comhttps://www.zillow.com/homedetails/31-W-Marlette-Ave-Phoenix-AZ-85013/7798747_zpid/
"9435 S 33rd Dr, Laveen, AZ 85339","$374,900",4,2.5,1810,House for sale,33.36054,-112.13063,https://www.zillow.comhttps://www.zillow.com/homedetails/9435-S-33rd-Dr-Laveen-AZ-85339/82800923_zpid/
"1208 E Hess Ave, Phoenix, AZ 85034","$350,000",3,2,1132,House for sale,33.429005,-112.055466,https://www.zillow.comhttps://www.zillow.com/homedetails/1208-E-Hess-Ave-Phoenix-AZ-85034/67754999_zpid/
"4117 E Coolidge St, Phoenix, AZ 85018","$1,500,000",3,3,2253,House for sale,33.505413,-111.99222,https://www.zillow.comhttps://www.zillow.com/homedetails/4117-E-Coolidge-St-Phoenix-AZ-85018/7835694_zpid/
"18116 N 14th St, Phoenix, AZ 85022","$1,995,000",4,4.5,4705,House for sale,33.65079,-112.05325,https://www.zillow.comhttps://www.zillow.com/homedetails/18116-N-14th-St-Phoenix-AZ-85022/71600176_zpid/
"4401 E Walatowa St, Phoenix, AZ 85044","$399,000",3,2,1685,House for sale,33.346504,-111.988655,https://www.zillow.comhttps://www.zillow.com/homedetails/4401-E-Walatowa-St-Phoenix-AZ-85044/8258096_zpid/
"3006 W Matthew Dr, Phoenix, AZ 85027","$398,000",3,2,1324,House for sale,33.67747,-112.12384,https://www.zillow.comhttps://www.zillow.com/homedetails/3006-W-Matthew-Dr-Phoenix-AZ-85027/7940381_zpid/
"2823 N 50th Ave, Phoenix, AZ 85035","$329,000",3,2.5,1616,House for sale,33.479855,-112.16482,https://www.zillow.comhttps://www.zillow.com/homedetails/2823-N-50th-Ave-Phoenix-AZ-85035/7493988_zpid/
"2556 W Amber Sun Dr, Phoenix, AZ 85085","$499,900",4,2,1625,House for sale,33.793873,-112.115135,https://www.zillow.comhttps://www.zillow.com/homedetails/2556-W-Amber-Sun-Dr-Phoenix-AZ-85085/67775163_zpid/
"4615 N 39th Ave APT 21, Phoenix, AZ 85019","$185,000",2,1.5,1026,Townhouse for sale,33.503677,-112.14232,https://www.zillow.comhttps://www.zillow.com/homedetails/4615-N-39th-Ave-APT-21-Phoenix-AZ-85019/7507129_zpid/
"22706 N 17th St, Phoenix, AZ 85024","$749,000",5,3.5,3181,House for sale,33.692673,-112.044266,https://www.zillow.comhttps://www.zillow.com/homedetails/22706-N-17th-St-Phoenix-AZ-85024/61629083_zpid/
"22218 N 28th St, Phoenix, AZ 85050","$974,999",3,2.5,2380,House for sale,33.688503,-112.022354,https://www.zillow.comhttps://www.zillow.com/homedetails/22218-N-28th-St-Phoenix-AZ-85050/300107269_zpid/
"9325 W Montecito Ave, Phoenix, AZ 85037","$449,000",4,2,1801,House for sale,33.498295,-112.26023,https://www.zillow.comhttps://www.zillow.com/homedetails/9325-W-Montecito-Ave-Phoenix-AZ-85037/442304870_zpid/
"6908 S 8th Dr, Phoenix, AZ 85041","$329,000",3,2,1584,House for sale,33.383614,-112.08355,https://www.zillow.comhttps://www.zillow.com/homedetails/6908-S-8th-Dr-Phoenix-AZ-85041/81979838_zpid/
"19230 N 5th St, Phoenix, AZ 85024","$495,000",3,2,1565,House for sale,33.661198,-112.06805,https://www.zillow.comhttps://www.zillow.com/homedetails/19230-N-5th-St-Phoenix-AZ-85024/7972551_zpid/
"5040 N Arcadia Dr, Phoenix, AZ 85018","$6,700,000",6,5.5,6134,House for sale,33.510967,-111.97077,https://www.zillow.comhttps://www.zillow.com/homedetails/5040-N-Arcadia-Dr-Phoenix-AZ-85018/7838110_zpid/
"6541 N 41st Ave, Phoenix, AZ 85019","$385,000",4,2,1676,House for sale,33.532753,-112.14687,https://www.zillow.comhttps://www.zillow.com/homedetails/6541-N-41st-Ave-Phoenix-AZ-85019/7762443_zpid/
"2916 N 48th Ave, Phoenix, AZ 85031","$375,000",4,3,2334,House for sale,33.481197,-112.161835,https://www.zillow.comhttps://www.zillow.com/homedetails/2916-N-48th-Ave-Phoenix-AZ-85031/7510186_zpid/
"3734 W Dailey St, Phoenix, AZ 85053","$432,000",3,2,1796,House for sale,33.613304,-112.139755,https://www.zillow.comhttps://www.zillow.com/homedetails/3734-W-Dailey-St-Phoenix-AZ-85053/7944709_zpid/
"2526 N 32nd St #GB23, Phoenix, AZ 85008","$99,900",3,2,1248,Home for sale,33.475994,-112.01492,https://www.zillow.comhttps://www.zillow.com/homedetails/2526-N-32nd-St-GB23-Phoenix-AZ-85008/441853680_zpid/
"7769 W Bonitos Dr, Phoenix, AZ 85035","$350,000",3,2.5,1486,House for sale,33.471634,-112.226654,https://www.zillow.comhttps://www.zillow.com/homedetails/7769-W-Bonitos-Dr-Phoenix-AZ-85035/95090512_zpid/
"2908 N 54th Dr, Phoenix, AZ 85031","$375,000",4,2,1649,House for sale,33.481018,-112.1764,https://www.zillow.comhttps://www.zillow.com/homedetails/2908-N-54th-Dr-Phoenix-AZ-85031/7497182_zpid/
"15402 N 28th St UNIT 201, Phoenix, AZ 85032","$199,900",2,2,946,Condo for sale,33.62692,-112.022575,https://www.zillow.comhttps://www.zillow.com/homedetails/15402-N-28th-St-UNIT-201-Phoenix-AZ-85032/8007814_zpid/
"7533 N 8th St, Phoenix, AZ 85020","$1,100,000",5,3,2731,House for sale,33.546116,-112.06242,https://www.zillow.comhttps://www.zillow.com/homedetails/7533-N-8th-St-Phoenix-AZ-85020/7791000_zpid/
"2239 E Wier Ave, Phoenix, AZ 85040","$377,500",3,2,1513,House for sale,33.40309,-112.03258,https://www.zillow.comhttps://www.zillow.com/homedetails/2239-E-Wier-Ave-Phoenix-AZ-85040/7545763_zpid/
"2315 W Union Hills Dr APT 108, Phoenix, AZ 85027","$287,000",3,2.5,1534,Townhouse for sale,33.65391,-112.10854,https://www.zillow.comhttps://www.zillow.com/homedetails/2315-W-Union-Hills-Dr-APT-108-Phoenix-AZ-85027/7958040_zpid/
"9615 N 34th Ave, Phoenix, AZ 85051","$419,999",4,2,1777,House for sale,33.573322,-112.13145,https://www.zillow.comhttps://www.zillow.com/homedetails/9615-N-34th-Ave-Phoenix-AZ-85051/7739248_zpid/
"3017 E Bluefield Ave, Phoenix, AZ 85032","$385,000",3,2,1059,House for sale,33.65298,-112.017,https://www.zillow.comhttps://www.zillow.com/homedetails/3017-E-Bluefield-Ave-Phoenix-AZ-85032/7999215_zpid/
"211 W Kaler Dr, Phoenix, AZ 85021","$3,299,000",5,5,5996,House for sale,33.546963,-112.07747,https://www.zillow.comhttps://www.zillow.com/homedetails/211-W-Kaler-Dr-Phoenix-AZ-85021/7793023_zpid/
"9932 N 16th Pl E, Phoenix, AZ 85020","$675,000",3,3,1900,House for sale,33.577877,-112.046364,https://www.zillow.comhttps://www.zillow.com/homedetails/9932-N-16th-Pl-E-Phoenix-AZ-85020/7811721_zpid/
"2509 E Meadowbrook Ave, Phoenix, AZ 85016","$869,000",3,3,1620,House for sale,33.5034,-112.02753,https://www.zillow.comhttps://www.zillow.com/homedetails/2509-E-Meadowbrook-Ave-Phoenix-AZ-85016/7803572_zpid/
"18845 N 23rd Pl, Phoenix, AZ 85024","$459,000",3,2,1635,House for sale,33.658455,-112.03127,https://www.zillow.comhttps://www.zillow.com/homedetails/18845-N-23rd-Pl-Phoenix-AZ-85024/7994867_zpid/
"19225 N Cave Creek Rd LOT 83, Phoenix, AZ 85024","$28,000",2,1,751,Home for sale,33.66082,-112.02913,https://www.zillow.comhttps://www.zillow.com/homedetails/19225-N-Cave-Creek-Rd-LOT-83-Phoenix-AZ-85024/2132208791_zpid/
"4203 E Hazelwood St, Phoenix, AZ 85018","$4,500,000",11,10.5,7047,House for sale,33.50367,-111.99034,https://www.zillow.comhttps://www.zillow.com/homedetails/4203-E-Hazelwood-St-Phoenix-AZ-85018/7835827_zpid/
"3437 E Acoma Dr, Phoenix, AZ 85032","$420,000",3,2,1164,House for sale,33.618896,-112.00775,https://www.zillow.comhttps://www.zillow.com/homedetails/3437-E-Acoma-Dr-Phoenix-AZ-85032/8012264_zpid/
"4201 W Renee Dr, Glendale, AZ 85308","$389,900",3,2.5,1826,House for sale,33.65487,-112.1492,https://www.zillow.comhttps://www.zillow.com/homedetails/4201-W-Renee-Dr-Glendale-AZ-85308/7935968_zpid/
"4526 E Bannock St, Phoenix, AZ 85044","$439,000",3,2,1466,House for sale,33.33058,-111.98437,https://www.zillow.comhttps://www.zillow.com/homedetails/4526-E-Bannock-St-Phoenix-AZ-85044/8150985_zpid/
"4208 E Ashler Hills Dr, Cave Creek, AZ 85331","$1,350,000",3,4,3152,House for sale,33.777878,-111.990944,https://www.zillow.comhttps://www.zillow.com/homedetails/4208-E-Ashler-Hills-Dr-Cave-Creek-AZ-85331/304792428_zpid/
"1017 E Maryland Ave UNIT 236, Phoenix, AZ 85014","$335,000",2,2,1008,House for sale,33.53078,-112.06039,https://www.zillow.comhttps://www.zillow.com/homedetails/1017-E-Maryland-Ave-UNIT-236-Phoenix-AZ-85014/7797765_zpid/
"3622 W Sunland Ave, Phoenix, AZ 85041","$310,000",5,2,1374,House for sale,33.396324,-112.1365,https://www.zillow.comhttps://www.zillow.com/homedetails/3622-W-Sunland-Ave-Phoenix-AZ-85041/7503322_zpid/
"1744 E Fremont Rd, Phoenix, AZ 85042","$449,999",3,2,1886,House for sale,33.38184,-112.04277,https://www.zillow.comhttps://www.zillow.com/homedetails/1744-E-Fremont-Rd-Phoenix-AZ-85042/7549674_zpid/
"34924 30th Ave, Phoenix, AZ 85086","$304,900",3,2,1126,Townhouse for sale,33.80087,-112.12445,https://www.zillow.comhttps://www.zillow.com/homedetails/34924-30th-Ave-Phoenix-AZ-85086/61628806_zpid/
"21655 N 36th Ave UNIT 117, Glendale, AZ 85308","$315,000",3,2.5,1457,Townhouse for sale,33.682644,-112.13708,https://www.zillow.comhttps://www.zillow.com/homedetails/21655-N-36th-Ave-UNIT-117-Glendale-AZ-85308/88792007_zpid/
"1836 N 77th Gln, Phoenix, AZ 85035","$308,000",2,2.5,1392,Townhouse for sale,33.46814,-112.22653,https://www.zillow.comhttps://www.zillow.com/homedetails/1836-N-77th-Gln-Phoenix-AZ-85035/95148145_zpid/
"8520 W Palm Ln UNIT 1054, Phoenix, AZ 85037","$275,000",3,2,1320,House for sale,33.47133,-112.24172,https://www.zillow.comhttps://www.zillow.com/homedetails/8520-W-Palm-Ln-UNIT-1054-Phoenix-AZ-85037/7474333_zpid/
"3711 E Long Lake Rd, Phoenix, AZ 85048","$459,900",3,2,1434,House for sale,33.304462,-112.00311,https://www.zillow.comhttps://www.zillow.com/homedetails/3711-E-Long-Lake-Rd-Phoenix-AZ-85048/8163268_zpid/
"711 E McKinley St, Phoenix, AZ 85006","$439,000",2,2.5,1038,House for sale,33.456535,-112.064514,https://www.zillow.comhttps://www.zillow.com/homedetails/711-E-McKinley-St-Phoenix-AZ-85006/7530166_zpid/
"28814 N 45th St, Cave Creek, AZ 85331","$865,000",4,2,2440,House for sale,33.746147,-111.984344,https://www.zillow.comhttps://www.zillow.com/homedetails/28814-N-45th-St-Cave-Creek-AZ-85331/7974985_zpid/
"2701 E Utopia Rd LOT 2, Phoenix, AZ 85050","$79,900",2,2,960,For sale by owner,33.66203,-112.02489,https://www.zillow.comhttps://www.zillow.com/homedetails/2701-E-Utopia-Rd-LOT-2-Phoenix-AZ-85050/395649243_zpid/
"2802 E Mercer Ln, Phoenix, AZ 85028","$949,000",3,3,1961,House for sale,33.586617,-112.02153,https://www.zillow.comhttps://www.zillow.com/homedetails/2802-E-Mercer-Ln-Phoenix-AZ-85028/7819288_zpid/
"3804 E Daley Ln, Phoenix, AZ 85050","$1,350,000",4,3,3211,House for sale,33.694088,-111.99511,https://www.zillow.comhttps://www.zillow.com/homedetails/3804-E-Daley-Ln-Phoenix-AZ-85050/71607365_zpid/
"4308 W Redfield Rd, Glendale, AZ 85306","$448,000",4,2,2038,House for sale,33.614204,-112.15178,https://www.zillow.comhttps://www.zillow.com/homedetails/4308-W-Redfield-Rd-Glendale-AZ-85306/7952085_zpid/
"3643 E Friess Dr, Phoenix, AZ 85032","$450,000",3,2,1064,House for sale,33.614143,-112.002014,https://www.zillow.comhttps://www.zillow.com/homedetails/3643-E-Friess-Dr-Phoenix-AZ-85032/8012387_zpid/
"34979 N 30th Ave, Phoenix, AZ 85086","$374,500",3,2,1099,House for sale,33.80105,-112.1235,https://www.zillow.comhttps://www.zillow.com/homedetails/34979-N-30th-Ave-Phoenix-AZ-85086/61628861_zpid/
"4343 E Union Hills Dr, Phoenix, AZ 85050","$325,000",4,1.5,1638,House for sale,33.654884,-111.98767,https://www.zillow.comhttps://www.zillow.com/homedetails/4343-E-Union-Hills-Dr-Phoenix-AZ-85050/69807092_zpid/
"3407 N 67th Ln, Phoenix, AZ 85033","$380,000",4,2,1730,House for sale,33.48796,-112.20447,https://www.zillow.comhttps://www.zillow.com/homedetails/3407-N-67th-Ln-Phoenix-AZ-85033/7485762_zpid/
"6830 W Desert Ln, Laveen, AZ 85339","$379,900",4,3,1484,House for sale,33.37148,-112.20309,https://www.zillow.comhttps://www.zillow.com/homedetails/6830-W-Desert-Ln-Laveen-AZ-85339/67782826_zpid/
"1423 E Pierce St, Phoenix, AZ 85006","$725,000",4,2,1900,Multi-family home for sale,33.455532,-112.05106,https://www.zillow.comhttps://www.zillow.com/homedetails/1423-E-Pierce-St-Phoenix-AZ-85006/7529176_zpid/
"6001 N 10th Way, Phoenix, AZ 85014","$640,000",4,2,2406,House for sale,33.523945,-112.06007,https://www.zillow.comhttps://www.zillow.com/homedetails/6001-N-10th-Way-Phoenix-AZ-85014/7797829_zpid/
"16608 N 1st Ave #95, Phoenix, AZ 85023","$25,000",2,2,910,Home for sale,33.637123,-112.07496,https://www.zillow.comhttps://www.zillow.com/homedetails/16608-N-1st-Ave-95-Phoenix-AZ-85023/442109880_zpid/
"3201 W Mohawk Ln, Phoenix, AZ 85027","$350,000",2,2,1056,House for sale,33.67337,-112.128044,https://www.zillow.comhttps://www.zillow.com/homedetails/3201-W-Mohawk-Ln-Phoenix-AZ-85027/7934107_zpid/
"6436 W Saddlehorn Rd, Phoenix, AZ 85083","$430,000",3,2,1286,House for sale,33.715706,-112.19902,https://www.zillow.comhttps://www.zillow.com/homedetails/6436-W-Saddlehorn-Rd-Phoenix-AZ-85083/7925611_zpid/
"3807 W Abraham Ln, Glendale, AZ 85308","$280,000",3,2,1344,Home for sale,33.679825,-112.1402,https://www.zillow.comhttps://www.zillow.com/homedetails/3807-W-Abraham-Ln-Glendale-AZ-85308/7937154_zpid/
"3224 E Sweetwater Ave, Phoenix, AZ 85032","$439,000",4,2,1679,House for sale,33.604523,-112.011986,https://www.zillow.comhttps://www.zillow.com/homedetails/3224-E-Sweetwater-Ave-Phoenix-AZ-85032/7819499_zpid/
"15411 S 13th Ave, Phoenix, AZ 85045","$739,900",3,2.5,2364,House for sale,33.303852,-112.08837,https://www.zillow.comhttps://www.zillow.com/homedetails/15411-S-13th-Ave-Phoenix-AZ-85045/8130806_zpid/
"1332 E Charleston Ave, Phoenix, AZ 85022","$574,900",4,3,2078,House for sale,33.64928,-112.053406,https://www.zillow.comhttps://www.zillow.com/homedetails/1332-E-Charleston-Ave-Phoenix-AZ-85022/8002054_zpid/
"908 W Mohawk Ln, Phoenix, AZ 85027","$439,000",4,2,1617,House for sale,33.67426,-112.085075,https://www.zillow.comhttps://www.zillow.com/homedetails/908-W-Mohawk-Ln-Phoenix-AZ-85027/7966844_zpid/
"16224 S 40th Pl, Phoenix, AZ 85048","$465,000",3,2,1728,House for sale,33.298943,-111.99694,https://www.zillow.comhttps://www.zillow.com/homedetails/16224-S-40th-Pl-Phoenix-AZ-85048/8259660_zpid/
"13606 N 21st Pl #19, Phoenix, AZ 85022","$129,900",3,2,1568,Home for sale,33.6098,-112.03814,https://www.zillow.comhttps://www.zillow.com/homedetails/13606-N-21st-Pl-19-Phoenix-AZ-85022/453000177_zpid/
"1015 W Encanto Blvd, Phoenix, AZ 85007","$3,275,000",4,3,4425,House for sale,33.47225,-112.08641,https://www.zillow.comhttps://www.zillow.com/homedetails/1015-W-Encanto-Blvd-Phoenix-AZ-85007/7520735_zpid/
"4501 E Osage Ct, Phoenix, AZ 85044","$479,999",3,2,1710,House for sale,33.33144,-111.98573,https://www.zillow.comhttps://www.zillow.com/homedetails/4501-E-Osage-Ct-Phoenix-AZ-85044/8150474_zpid/
"3452 E Evans Dr, Phoenix, AZ 85032","$310,000",3,1,917,House for sale,33.61862,-112.00693,https://www.zillow.comhttps://www.zillow.com/homedetails/3452-E-Evans-Dr-Phoenix-AZ-85032/8012131_zpid/
"2543 W Rabjohn Rd, Phoenix, AZ 85085","$650,000",4,2.5,2590,House for sale,33.786015,-112.11461,https://www.zillow.comhttps://www.zillow.com/homedetails/2543-W-Rabjohn-Rd-Phoenix-AZ-85085/124430250_zpid/
"3418 W Maldonado Rd, Phoenix, AZ 85041","$400,000",4,2,1834,House for sale,33.383083,-112.132706,https://www.zillow.comhttps://www.zillow.com/homedetails/3418-W-Maldonado-Rd-Phoenix-AZ-85041/60977002_zpid/
"1743 W Acoma Dr, Phoenix, AZ 85023","$565,000",3,2,1709,House for sale,33.618214,-112.09785,https://www.zillow.comhttps://www.zillow.com/homedetails/1743-W-Acoma-Dr-Phoenix-AZ-85023/7962477_zpid/
"3039 W Ross Ave, Phoenix, AZ 85027","$299,000",1,1,718,Multi-family home for sale,33.67563,-112.125,https://www.zillow.comhttps://www.zillow.com/homedetails/3039-W-Ross-Ave-Phoenix-AZ-85027/7934374_zpid/
"725 E Hidalgo Ave, Phoenix, AZ 85040","$279,900",2,1,748,House for sale,33.394203,-112.06375,https://www.zillow.comhttps://www.zillow.com/homedetails/725-E-Hidalgo-Ave-Phoenix-AZ-85040/7525218_zpid/
"2949 E Wier Ave, Phoenix, AZ 85040","$390,000",3,2,1454,House for sale,33.4031,-112.01607,https://www.zillow.comhttps://www.zillow.com/homedetails/2949-E-Wier-Ave-Phoenix-AZ-85040/7548015_zpid/
"3416 E Squawbush Pl, Phoenix, AZ 85044","$867,500",4,3,2968,House for sale,33.319576,-112.01126,https://www.zillow.comhttps://www.zillow.com/homedetails/3416-E-Squawbush-Pl-Phoenix-AZ-85044/8162133_zpid/
"1210 W Missouri Ave, Phoenix, AZ 85013","$490,000",3,2,1302,House for sale,33.516968,-112.088425,https://www.zillow.comhttps://www.zillow.com/homedetails/1210-W-Missouri-Ave-Phoenix-AZ-85013/7775822_zpid/
"4513 E Grovers Ave, Phoenix, AZ 85032","$579,900",3,2,1827,House for sale,33.64771,-111.9829,https://www.zillow.comhttps://www.zillow.com/homedetails/4513-E-Grovers-Ave-Phoenix-AZ-85032/8018952_zpid/
"4211 W Yorkshire Dr, Glendale, AZ 85308","$797,000",3,2,2588,House for sale,33.661343,-112.15035,https://www.zillow.comhttps://www.zillow.com/homedetails/4211-W-Yorkshire-Dr-Glendale-AZ-85308/7935880_zpid/
"1937 W Burgess Ln, Phoenix, AZ 85041","$425,000",4,2.5,2407,House for sale,33.389214,-112.10117,https://www.zillow.comhttps://www.zillow.com/homedetails/1937-W-Burgess-Ln-Phoenix-AZ-85041/67781739_zpid/
"3837 E Yale St, Phoenix, AZ 85008","$495,000",3,2,1152,House for sale,33.47631,-111.99811,https://www.zillow.comhttps://www.zillow.com/homedetails/3837-E-Yale-St-Phoenix-AZ-85008/7541446_zpid/
"10410 N Cave Creek Rd UNIT 2220, Phoenix, AZ 85020","$259,000",3,2,1367,Apartment for sale,33.58061,-112.054756,https://www.zillow.comhttps://www.zillow.com/homedetails/10410-N-Cave-Creek-Rd-UNIT-2220-Phoenix-AZ-85020/7786248_zpid/
"2519 W Burgess Ln, Phoenix, AZ 85041","$445,000",5,3,2196,House for sale,33.389477,-112.1129,https://www.zillow.comhttps://www.zillow.com/homedetails/2519-W-Burgess-Ln-Phoenix-AZ-85041/62727609_zpid/
"3901 E Pinnacle Peak Rd LOT 329, Phoenix, AZ 85050","$100,000",2,2,1486,Home for sale,33.694847,-111.99874,https://www.zillow.comhttps://www.zillow.com/homedetails/3901-E-Pinnacle-Peak-Rd-LOT-329-Phoenix-AZ-85050/447127878_zpid/
"1385 N 44th St, Phoenix, AZ 85008","$349,000",4,2.5,1584,Townhouse for sale,33.463184,-111.98528,https://www.zillow.comhttps://www.zillow.com/homedetails/1385-N-44th-St-Phoenix-AZ-85008/7559784_zpid/
"24813 N 55th Dr, Glendale, AZ 85310","$649,000",3,2,1691,House for sale,33.71122,-112.179436,https://www.zillow.comhttps://www.zillow.com/homedetails/24813-N-55th-Dr-Glendale-AZ-85310/7926750_zpid/
"8724 N 28th Ave, Phoenix, AZ 85051","$290,000",3,2,1176,House for sale,33.56476,-112.11972,https://www.zillow.comhttps://www.zillow.com/homedetails/8724-N-28th-Ave-Phoenix-AZ-85051/7750344_zpid/
"4014 W Anderson Dr, Glendale, AZ 85308","$434,999",4,2,2069,House for sale,33.64314,-112.145935,https://www.zillow.comhttps://www.zillow.com/homedetails/4014-W-Anderson-Dr-Glendale-AZ-85308/7946790_zpid/
"9722 S 45th Ave, Laveen, AZ 85339","$499,990",3,2,2107,House for sale,33.358196,-112.15646,https://www.zillow.comhttps://www.zillow.com/homedetails/9722-S-45th-Ave-Laveen-AZ-85339/67771672_zpid/
"6530 N 12th St UNIT 11, Phoenix, AZ 85014","$295,000",2,2,1120,Condo for sale,33.532322,-112.05653,https://www.zillow.comhttps://www.zillow.com/homedetails/6530-N-12th-St-UNIT-11-Phoenix-AZ-85014/7796591_zpid/
"5500 N Dromedary Rd, Phoenix, AZ 85018","$30,000,000",1,2.5,4641,House for sale,33.51239,-111.968925,https://www.zillow.comhttps://www.zillow.com/homedetails/5500-N-Dromedary-Rd-Phoenix-AZ-85018/7839305_zpid/
"2636 N Dayton St, Phoenix, AZ 85006","$599,990",4,3,1843,House for sale,33.47795,-112.05993,https://www.zillow.comhttps://www.zillow.com/homedetails/2636-N-Dayton-St-Phoenix-AZ-85006/7533674_zpid/
"15818 N 25th St UNIT 112, Phoenix, AZ 85032","$300,000",3,2.5,1275,Townhouse for sale,33.630074,-112.02921,https://www.zillow.comhttps://www.zillow.com/homedetails/15818-N-25th-St-UNIT-112-Phoenix-AZ-85032/71621392_zpid/
"520 W Hononegh Dr UNIT 2, Phoenix, AZ 85027","$230,000",2,2,863,Townhouse for sale,33.67202,-112.08089,https://www.zillow.comhttps://www.zillow.com/homedetails/520-W-Hononegh-Dr-UNIT-2-Phoenix-AZ-85027/7967445_zpid/
"409 E Beth Dr, Phoenix, AZ 85042","$399,900",4,2,2165,House for sale,33.364395,-112.06869,https://www.zillow.comhttps://www.zillow.com/homedetails/409-E-Beth-Dr-Phoenix-AZ-85042/59265889_zpid/
"4410 N 20th Ave, Phoenix, AZ 85015","$575,000",5,3,2200,House for sale,33.501102,-112.10219,https://www.zillow.comhttps://www.zillow.com/homedetails/4410-N-20th-Ave-Phoenix-AZ-85015/7767443_zpid/
"5246 N 20th St APT B1, Phoenix, AZ 85016","$325,000",2,2,1050,Apartment for sale,33.51407,-112.04049,https://www.zillow.comhttps://www.zillow.com/homedetails/5246-N-20th-St-APT-B1-Phoenix-AZ-85016/7809252_zpid/
"7256 N 40th St #6, Paradise Valley, AZ 85253","$20,400,000",5,6,10170,New construction,33.543842,-111.99988,https://www.zillow.comhttps://www.zillow.com/homedetails/7256-N-40th-St-6-Paradise-Valley-AZ-85253/2075123702_zpid/
"1022 E Mariposa St, Phoenix, AZ 85014","$479,900",4,3,1720,House for sale,33.508568,-112.059654,https://www.zillow.comhttps://www.zillow.com/homedetails/1022-E-Mariposa-St-Phoenix-AZ-85014/7769342_zpid/
"1009 E Chipman Rd, Phoenix, AZ 85040","$235,000",2,1,800,House for sale,33.4022,-112.05854,https://www.zillow.comhttps://www.zillow.com/homedetails/1009-E-Chipman-Rd-Phoenix-AZ-85040/121859099_zpid/
"2025 E Campbell Ave APT 143, Phoenix, AZ 85016","$310,000",2,2,1006,Townhouse for sale,33.500607,-112.03787,https://www.zillow.comhttps://www.zillow.com/homedetails/2025-E-Campbell-Ave-APT-143-Phoenix-AZ-85016/82802244_zpid/
"13019 N 23rd Pl, Phoenix, AZ 85022","$595,000",3,2,2009,House for sale,33.604744,-112.0312,https://www.zillow.comhttps://www.zillow.com/homedetails/13019-N-23rd-Pl-Phoenix-AZ-85022/7815542_zpid/
"2371 W Whisper Rock Trl, Phoenix, AZ 85085","$599,000",3,2.5,2026,House for sale,33.770885,-112.11056,https://www.zillow.comhttps://www.zillow.com/homedetails/2371-W-Whisper-Rock-Trl-Phoenix-AZ-85085/240311499_zpid/
"2339 W Ponderosa Ln, Phoenix, AZ 85023","$489,900",4,2,1702,House for sale,33.62641,-112.109665,https://www.zillow.comhttps://www.zillow.com/homedetails/2339-W-Ponderosa-Ln-Phoenix-AZ-85023/7960925_zpid/
"530 W Willetta St, Phoenix, AZ 85003","$1,000,000",3,2,1740,House for sale,33.46404,-112.08201,https://www.zillow.comhttps://www.zillow.com/homedetails/530-W-Willetta-St-Phoenix-AZ-85003/7521963_zpid/
"6847 W Taylor St, Phoenix, AZ 85043","$40,000",2,2,1248,For sale by owner,33.454247,-112.20682,https://www.zillow.comhttps://www.zillow.com/homedetails/6847-W-Taylor-St-Phoenix-AZ-85043/451081574_zpid/
"3913 W Sherman St, Phoenix, AZ 85009","$275,000",3,2,889,House for sale,33.440723,-112.14393,https://www.zillow.comhttps://www.zillow.com/homedetails/3913-W-Sherman-St-Phoenix-AZ-85009/7506101_zpid/
"5201 W Camelback Rd LOT FP217, Phoenix, AZ 85031","$12,000",2,2,0,Home for sale,33.505928,-112.172485,https://www.zillow.comhttps://www.zillow.com/homedetails/5201-W-Camelback-Rd-LOT-FP217-Phoenix-AZ-85031/2084901541_zpid/
"2363 W Dusty Wren Dr, Phoenix, AZ 85085","$425,000",3,2.5,1519,House for sale,33.77841,-112.11043,https://www.zillow.comhttps://www.zillow.com/homedetails/2363-W-Dusty-Wren-Dr-Phoenix-AZ-85085/67765406_zpid/
"3545 W Glass Ln, Phoenix, AZ 85041","$375,000",4,2,1580,House for sale,33.384136,-112.13588,https://www.zillow.comhttps://www.zillow.com/homedetails/3545-W-Glass-Ln-Phoenix-AZ-85041/62727871_zpid/
"3444 E Paradise Dr, Phoenix, AZ 85028","$549,000",3,2,1851,House for sale,33.595726,-112.00712,https://www.zillow.comhttps://www.zillow.com/homedetails/3444-E-Paradise-Dr-Phoenix-AZ-85028/7817516_zpid/
"1839 E Parkside Ln, Phoenix, AZ 85024","$625,000",4,2.5,2452,House for sale,33.693535,-112.04253,https://www.zillow.comhttps://www.zillow.com/homedetails/1839-E-Parkside-Ln-Phoenix-AZ-85024/61629130_zpid/
"3924 E Roma Ave, Phoenix, AZ 85018","$4,325,000",4,4.5,4272,House for sale,33.501747,-111.99704,https://www.zillow.comhttps://www.zillow.com/homedetails/3924-E-Roma-Ave-Phoenix-AZ-85018/7833907_zpid/
"3530 W Portland St, Phoenix, AZ 85009","$250,000",3,1,960,House for sale,33.45984,-112.13582,https://www.zillow.comhttps://www.zillow.com/homedetails/3530-W-Portland-St-Phoenix-AZ-85009/145831811_zpid/
"5132 N 31st Way UNIT 144, Phoenix, AZ 85016","$389,000",3,2,1835,Apartment for sale,33.512787,-112.015656,https://www.zillow.comhttps://www.zillow.com/homedetails/5132-N-31st-Way-UNIT-144-Phoenix-AZ-85016/7810543_zpid/
"317 W Tonopah Dr UNIT 2, Phoenix, AZ 85027","$265,000",2,2,863,House for sale,33.672375,-112.07943,https://www.zillow.comhttps://www.zillow.com/homedetails/317-W-Tonopah-Dr-UNIT-2-Phoenix-AZ-85027/7967417_zpid/
"3136 W Voltaire Ave, Phoenix, AZ 85029","$349,000",4,2,1610,House for sale,33.609238,-112.12683,https://www.zillow.comhttps://www.zillow.com/homedetails/3136-W-Voltaire-Ave-Phoenix-AZ-85029/7747950_zpid/
"17150 N 23rd St UNIT 125, Phoenix, AZ 85022","$388,000",3,2.5,1439,Townhouse for sale,33.64301,-112.03402,https://www.zillow.comhttps://www.zillow.com/homedetails/17150-N-23rd-St-UNIT-125-Phoenix-AZ-85022/72639692_zpid/
"14842 N 36th St, Phoenix, AZ 85032","$435,900",4,3,1235,House for sale,33.622307,-112.00494,https://www.zillow.comhttps://www.zillow.com/homedetails/14842-N-36th-St-Phoenix-AZ-85032/8014303_zpid/
"2145 W Cholla St, Phoenix, AZ 85029","$340,000",3,2,1320,House for sale,33.589027,-112.10583,https://www.zillow.comhttps://www.zillow.com/homedetails/2145-W-Cholla-St-Phoenix-AZ-85029/7739170_zpid/
"4304 W Calle Poco St, Laveen, AZ 85339","$895,000",5,2,3315,House for sale,33.339912,-112.15209,https://www.zillow.comhttps://www.zillow.com/homedetails/4304-W-Calle-Poco-St-Laveen-AZ-85339/8133341_zpid/
"925 W McDowell Rd UNIT 112, Phoenix, AZ 85007","$350,000",2,2,1001,Townhouse for sale,33.465393,-112.08685,https://www.zillow.comhttps://www.zillow.com/homedetails/925-W-McDowell-Rd-UNIT-112-Phoenix-AZ-85007/119919929_zpid/
"10838 N 10th St, Phoenix, AZ 85020","$610,000",3,2,1735,House for sale,33.585625,-112.06091,https://www.zillow.comhttps://www.zillow.com/homedetails/10838-N-10th-St-Phoenix-AZ-85020/7785861_zpid/
"22507 N 31st Ave UNIT 11, Phoenix, AZ 85027","$439,900",4,2.5,2074,House for sale,33.689823,-112.12519,https://www.zillow.comhttps://www.zillow.com/homedetails/22507-N-31st-Ave-UNIT-11-Phoenix-AZ-85027/67800599_zpid/
"2315 W Beverly Rd, Phoenix, AZ 85041","$425,000",5,3,1957,House for sale,33.374393,-112.10973,https://www.zillow.comhttps://www.zillow.com/homedetails/2315-W-Beverly-Rd-Phoenix-AZ-85041/82227058_zpid/
"1614 Palmcroft Dr SW, Phoenix, AZ 85007","$1,800,000",4,3,4142,House for sale,33.46651,-112.085625,https://www.zillow.comhttps://www.zillow.com/homedetails/1614-Palmcroft-Dr-SW-Phoenix-AZ-85007/7520579_zpid/
"7040 N 23rd Pl #104, Phoenix, AZ 85020","$975,000",,,,Lot / Land for sale,33.53997,-112.031044,https://www.zillow.comhttps://www.zillow.com/homedetails/7040-N-23rd-Pl-104-Phoenix-AZ-85020/2098050121_zpid/
"4805 E Kachina Trl UNIT 3, Phoenix, AZ 85044","$309,900",2,2.5,1328,Townhouse for sale,33.35611,-111.97855,https://www.zillow.comhttps://www.zillow.com/homedetails/4805-E-Kachina-Trl-UNIT-3-Phoenix-AZ-85044/448817258_zpid/
"3035 W Pierce St, Phoenix, AZ 85009","$350,000",4,3,1494,House for sale,33.455486,-112.12533,https://www.zillow.comhttps://www.zillow.com/homedetails/3035-W-Pierce-St-Phoenix-AZ-85009/7513765_zpid/
"4313 E Briarwood Ter, Phoenix, AZ 85048","$559,000",3,2,1700,House for sale,33.296474,-111.989845,https://www.zillow.comhttps://www.zillow.com/homedetails/4313-E-Briarwood-Ter-Phoenix-AZ-85048/8158251_zpid/
"16823 S 24th Pl, Phoenix, AZ 85048","$600,000",4,2.5,2041,House for sale,33.293774,-112.02997,https://www.zillow.comhttps://www.zillow.com/homedetails/16823-S-24th-Pl-Phoenix-AZ-85048/8257005_zpid/
"717 E State Ave, Phoenix, AZ 85020","$529,900",3,2,1588,House for sale,33.543884,-112.06416,https://www.zillow.comhttps://www.zillow.com/homedetails/717-E-State-Ave-Phoenix-AZ-85020/7791064_zpid/
"3102 E Clarendon Ave UNIT 210, Phoenix, AZ 85016","$283,000",2,2,1017,Apartment for sale,33.491817,-112.01423,https://www.zillow.comhttps://www.zillow.com/homedetails/3102-E-Clarendon-Ave-UNIT-210-Phoenix-AZ-85016/2057391174_zpid/
"2120 E Bluefield Ave LOT 108, Phoenix, AZ 85022","$155,000",3,2,1688,Home for sale,33.653236,-112.037155,https://www.zillow.comhttps://www.zillow.com/homedetails/2120-E-Bluefield-Ave-LOT-108-Phoenix-AZ-85022/342084199_zpid/
"1955 E Grovers Ave LOT 8, Phoenix, AZ 85022","$129,500",3,2,1456,Home for sale,33.64678,-112.04018,https://www.zillow.comhttps://www.zillow.com/homedetails/1955-E-Grovers-Ave-LOT-8-Phoenix-AZ-85022/452212434_zpid/
"2210 E Paraiso Dr, Phoenix, AZ 85024","$699,000",3,2.5,2021,House for sale,33.69511,-112.03514,https://www.zillow.comhttps://www.zillow.com/homedetails/2210-E-Paraiso-Dr-Phoenix-AZ-85024/7990615_zpid/
"17040 N 39th Ave, Glendale, AZ 85308","$475,000",4,2,1820,House for sale,33.64092,-112.14338,https://www.zillow.comhttps://www.zillow.com/homedetails/17040-N-39th-Ave-Glendale-AZ-85308/7946710_zpid/
"22125 N 29th Ave UNIT 158, Phoenix, AZ 85027","$291,000",2,2.5,1322,Townhouse for sale,33.687157,-112.120674,https://www.zillow.comhttps://www.zillow.com/homedetails/22125-N-29th-Ave-UNIT-158-Phoenix-AZ-85027/82827833_zpid/
"4252 E Zia St, Phoenix, AZ 85044","$550,000",3,3,1910,House for sale,33.341576,-111.99065,https://www.zillow.comhttps://www.zillow.com/homedetails/4252-E-Zia-St-Phoenix-AZ-85044/8257904_zpid/
"6640 W Honeysuckle Dr, Phoenix, AZ 85083","$489,000",4,2,1720,House for sale,33.719265,-112.202866,https://www.zillow.comhttps://www.zillow.com/homedetails/6640-W-Honeysuckle-Dr-Phoenix-AZ-85083/7925851_zpid/
"7433 W Darrel Rd, Laveen, AZ 85339","$419,000",4,2,1914,House for sale,33.383087,-112.21894,https://www.zillow.comhttps://www.zillow.com/homedetails/7433-W-Darrel-Rd-Laveen-AZ-85339/82823328_zpid/
"4215 E Flower St, Phoenix, AZ 85018","$1,285,000",4,3,2408,House for sale,33.48598,-111.99043,https://www.zillow.comhttps://www.zillow.com/homedetails/4215-E-Flower-St-Phoenix-AZ-85018/7563667_zpid/
"5302 E Van Buren St UNIT 2024, Phoenix, AZ 85008","$279,900",2,2,847,Apartment for sale,33.45159,-111.96564,https://www.zillow.comhttps://www.zillow.com/homedetails/5302-E-Van-Buren-St-UNIT-2024-Phoenix-AZ-85008/81959991_zpid/
"4613 N 53rd Dr, Phoenix, AZ 85031","$459,900",5,2,2350,House for sale,33.50465,-112.17385,https://www.zillow.comhttps://www.zillow.com/homedetails/4613-N-53rd-Dr-Phoenix-AZ-85031/7713936_zpid/
"1117 W Glenrosa Ave, Phoenix, AZ 85013","$495,000",2,1,981,House for sale,33.49827,-112.08777,https://www.zillow.comhttps://www.zillow.com/homedetails/1117-W-Glenrosa-Ave-Phoenix-AZ-85013/7771035_zpid/
"4732 S 38th Gln, Phoenix, AZ 85041","$399,900",4,2,1470,House for sale,33.403675,-112.14205,https://www.zillow.comhttps://www.zillow.com/homedetails/4732-S-38th-Gln-Phoenix-AZ-85041/316016700_zpid/
"2936 E Beck Ln, Phoenix, AZ 85032","$368,500",3,2,1280,House for sale,33.627895,-112.01825,https://www.zillow.comhttps://www.zillow.com/homedetails/2936-E-Beck-Ln-Phoenix-AZ-85032/8007317_zpid/
"11139 W Devonshire Ave, Phoenix, AZ 85037","$342,500",3,2,1090,House for sale,33.49478,-112.29991,https://www.zillow.comhttps://www.zillow.com/homedetails/11139-W-Devonshire-Ave-Phoenix-AZ-85037/7488666_zpid/
"5401 W Jessica Ln, Laveen, AZ 85339","$353,000",3,2,1156,House for sale,33.39314,-112.175224,https://www.zillow.comhttps://www.zillow.com/homedetails/5401-W-Jessica-Ln-Laveen-AZ-85339/55257869_zpid/
"4329 W Electra Ln, Glendale, AZ 85310","$573,000",4,2,2292,House for sale,33.698498,-112.153534,https://www.zillow.comhttps://www.zillow.com/homedetails/4329-W-Electra-Ln-Glendale-AZ-85310/7931042_zpid/
"18239 N 40th St UNIT 122, Phoenix, AZ 85032","$265,000",2,1.5,1189,Townhouse for sale,33.652092,-111.99571,https://www.zillow.comhttps://www.zillow.com/homedetails/18239-N-40th-St-UNIT-122-Phoenix-AZ-85032/8018086_zpid/
"16021 N 30th St UNIT 127, Phoenix, AZ 85032","$342,000",3,2.5,1426,Townhouse for sale,33.632538,-112.016,https://www.zillow.comhttps://www.zillow.com/homedetails/16021-N-30th-St-UNIT-127-Phoenix-AZ-85032/81987518_zpid/
"2227 W Paradise Dr, Phoenix, AZ 85029","$384,998",4,2,1590,House for sale,33.594734,-112.10712,https://www.zillow.comhttps://www.zillow.com/homedetails/2227-W-Paradise-Dr-Phoenix-AZ-85029/7748907_zpid/
"2625 E Indian School Rd UNIT 340, Phoenix, AZ 85016","$237,000",2,2,874,Condo for sale,33.493687,-112.024216,https://www.zillow.comhttps://www.zillow.com/homedetails/2625-E-Indian-School-Rd-UNIT-340-Phoenix-AZ-85016/82801581_zpid/
"20440 N 39th Dr, Glendale, AZ 85308","$499,000",3,2.5,2235,House for sale,33.67236,-112.14415,https://www.zillow.comhttps://www.zillow.com/homedetails/20440-N-39th-Dr-Glendale-AZ-85308/7936700_zpid/
"18250 N Cave Creek Rd UNIT 147, Phoenix, AZ 85032","$309,000",2,2.5,1440,Townhouse for sale,33.65266,-112.033005,https://www.zillow.comhttps://www.zillow.com/homedetails/18250-N-Cave-Creek-Rd-UNIT-147-Phoenix-AZ-85032/67791922_zpid/
"2150 E Sunland Ave, Phoenix, AZ 85040","$393,000",4,2.5,1941,House for sale,33.39662,-112.03444,https://www.zillow.comhttps://www.zillow.com/homedetails/2150-E-Sunland-Ave-Phoenix-AZ-85040/67789884_zpid/
"310 W Earll Dr UNIT 102, Phoenix, AZ 85013","$195,000",2,1,650,Apartment for sale,33.484356,-112.07948,https://www.zillow.comhttps://www.zillow.com/homedetails/310-W-Earll-Dr-UNIT-102-Phoenix-AZ-85013/72291308_zpid/
"4310 N 42nd Pl, Phoenix, AZ 85018","$690,000",3,2,1806,House for sale,33.499023,-111.989914,https://www.zillow.comhttps://www.zillow.com/homedetails/4310-N-42nd-Pl-Phoenix-AZ-85018/7835898_zpid/
"2202 N 26th Pl, Phoenix, AZ 85008","$200,000",2,1,1008,House for sale,33.47187,-112.02507,https://www.zillow.comhttps://www.zillow.com/homedetails/2202-N-26th-Pl-Phoenix-AZ-85008/55258854_zpid/
"3528 W Chambers St, Phoenix, AZ 85041","$285,000",3,1,1302,House for sale,33.39808,-112.13496,https://www.zillow.comhttps://www.zillow.com/homedetails/3528-W-Chambers-St-Phoenix-AZ-85041/7503377_zpid/
"3336 E Earll Dr, Phoenix, AZ 85018","$725,000",4,3,2500,House for sale,33.484364,-112.0087,https://www.zillow.comhttps://www.zillow.com/homedetails/3336-E-Earll-Dr-Phoenix-AZ-85018/7565531_zpid/
"2401 N 37th Way, Phoenix, AZ 85008","$504,900",3,2,1158,House for sale,33.473953,-112.00009,https://www.zillow.comhttps://www.zillow.com/homedetails/2401-N-37th-Way-Phoenix-AZ-85008/7541403_zpid/
"2641 W Wethersfield Rd, Phoenix, AZ 85029","$369,900",4,2,1764,House for sale,33.59676,-112.11475,https://www.zillow.comhttps://www.zillow.com/homedetails/2641-W-Wethersfield-Rd-Phoenix-AZ-85029/7748488_zpid/
"20838 N 39th Dr, Glendale, AZ 85308","$506,000",4,2,2472,House for sale,33.676006,-112.14531,https://www.zillow.comhttps://www.zillow.com/homedetails/20838-N-39th-Dr-Glendale-AZ-85308/59266299_zpid/
"2223 E Catalina Dr, Phoenix, AZ 85016","$399,900",3,2,1502,Townhouse for sale,33.481293,-112.0335,https://www.zillow.comhttps://www.zillow.com/homedetails/2223-E-Catalina-Dr-Phoenix-AZ-85016/7539377_zpid/
"4072 E Mountain Vista Dr, Phoenix, AZ 85048","$575,000",4,3.5,2581,House for sale,33.30142,-111.994255,https://www.zillow.comhttps://www.zillow.com/homedetails/4072-E-Mountain-Vista-Dr-Phoenix-AZ-85048/8157988_zpid/
"7126 N 19th Ave UNIT 228, Phoenix, AZ 85021","$195,000",2,1.5,1020,Townhouse for sale,33.54118,-112.10152,https://www.zillow.comhttps://www.zillow.com/homedetails/7126-N-19th-Ave-UNIT-228-Phoenix-AZ-85021/7778298_zpid/
"2441 E Edgemont Ave, Phoenix, AZ 85008","$470,000",3,2,1574,House for sale,33.479233,-112.028336,https://www.zillow.comhttps://www.zillow.com/homedetails/2441-E-Edgemont-Ave-Phoenix-AZ-85008/7543555_zpid/
"2228 N 52nd St UNIT 140, Phoenix, AZ 85008","$265,000",2,2,890,Condo for sale,33.471886,-111.970665,https://www.zillow.comhttps://www.zillow.com/homedetails/2228-N-52nd-St-UNIT-140-Phoenix-AZ-85008/68957427_zpid/
"2537 E Hazelwood St, Phoenix, AZ 85016","$530,000",4,2,1565,House for sale,33.50415,-112.02633,https://www.zillow.comhttps://www.zillow.com/homedetails/2537-E-Hazelwood-St-Phoenix-AZ-85016/7803607_zpid/
"4248 E Jason Dr, Phoenix, AZ 85050","$540,000",3,2,1422,House for sale,33.656162,-111.9891,https://www.zillow.comhttps://www.zillow.com/homedetails/4248-E-Jason-Dr-Phoenix-AZ-85050/8014899_zpid/
"2411 W Oberlin Way, Phoenix, AZ 85085","$499,900",4,2,1782,House for sale,33.736397,-112.11126,https://www.zillow.comhttps://www.zillow.com/homedetails/2411-W-Oberlin-Way-Phoenix-AZ-85085/55265834_zpid/
"2920 E Shady Spring Trl, Phoenix, AZ 85024","$715,000",4,3,2439,House for sale,33.71175,-112.01994,https://www.zillow.comhttps://www.zillow.com/homedetails/2920-E-Shady-Spring-Trl-Phoenix-AZ-85024/82826566_zpid/
"4349 E Selena Dr, Phoenix, AZ 85050","$480,000",3,2,1417,House for sale,33.656227,-111.9868,https://www.zillow.comhttps://www.zillow.com/homedetails/4349-E-Selena-Dr-Phoenix-AZ-85050/81978249_zpid/
"1819 W Magdalena Ln, Phoenix, AZ 85041","$629,900",5,3.5,3127,House for sale,33.370857,-112.099365,https://www.zillow.comhttps://www.zillow.com/homedetails/1819-W-Magdalena-Ln-Phoenix-AZ-85041/95112840_zpid/
"3612 E Pierson St, Phoenix, AZ 85018","$2,492,000",5,3.5,3561,House for sale,33.508644,-112.00331,https://www.zillow.comhttps://www.zillow.com/homedetails/3612-E-Pierson-St-Phoenix-AZ-85018/7833315_zpid/
"921 W Willetta St, Phoenix, AZ 85007","$1,100,000",3,3,2468,House for sale,33.46346,-112.08616,https://www.zillow.comhttps://www.zillow.com/homedetails/921-W-Willetta-St-Phoenix-AZ-85007/7521276_zpid/
"9029 S 15th St, Phoenix, AZ 85042","$749,900",4,2.5,2693,House for sale,33.364063,-112.05074,https://www.zillow.comhttps://www.zillow.com/homedetails/9029-S-15th-St-Phoenix-AZ-85042/240305455_zpid/
